{"name":"Digg_office_1","local":null,"category_code":"news","position":{"type":"Point","coordinates":[-122.394523,37.764726]},"city":"San Francisco","founded_year":2004,"number_of_employees":60.0,"total_money_raised":45000000.0,"latitude":37.764726,"longitude":-122.394523,"value":9}
{"name":"Geni_office_1","local":"Geni_office_1Headquarters","category_code":"web","position":{"type":"Point","coordinates":[-118.393064,34.090368]},"city":"West Hollywood","founded_year":2006,"number_of_employees":18.0,"total_money_raised":16500000.0,"latitude":34.090368,"longitude":-118.393064,"value":3}
{"name":"Gizmoz_office_1","local":null,"category_code":"web","position":{"type":"Point","coordinates":[-122.169472,37.48413]},"city":"Menlo Park","founded_year":2003,"number_of_employees":null,"total_money_raised":18100000.0,"latitude":37.48413,"longitude":-122.169472,"value":3}
{"name":"Helio_office_1","local":null,"category_code":"mobile","position":{"type":"Point","coordinates":[-118.446596,34.057498]},"city":"Los Angeles","founded_year":2005,"number_of_employees":null,"total_money_raised":0.0,"latitude":34.057498,"longitude":-118.446596,"value":6}
{"name":"Slacker_office_1","local":"Slacker_office_1","category_code":"music","position":{"type":"Point","coordinates":[-117.081406,33.022176]},"city":"San Diego","founded_year":2006,"number_of_employees":null,"total_money_raised":73100000.0,"latitude":33.022176,"longitude":-117.081406,"value":7}
{"name":"Scribd_office_1","local":"Scribd_office_1HQ","category_code":"news","position":{"type":"Point","coordinates":[-122.404052,37.789634]},"city":"San Francisco","founded_year":2007,"number_of_employees":50.0,"total_money_raised":25800000.0,"latitude":37.789634,"longitude":-122.404052,"value":9}
{"name":"MeetMoi_office_1","local":null,"category_code":"social","position":{"type":"Point","coordinates":[-73.985506,40.757929]},"city":"New York City","founded_year":2007,"number_of_employees":15.0,"total_money_raised":5580000.0,"latitude":40.757929,"longitude":-73.985506,"value":0}
{"name":"Joost_office_1","local":"Joost_office_1","category_code":"games_video","position":{"type":"Point","coordinates":[-74.0094471,40.7464969]},"city":"New York","founded_year":2006,"number_of_employees":0.0,"total_money_raised":45000000.0,"latitude":40.7464969,"longitude":-74.0094471,"value":7}
{"name":"Twitter_office_1","local":"Twitter_office_1","category_code":"social","position":{"type":"Point","coordinates":[-122.4169244,37.7768052]},"city":"San Francisco","founded_year":2006,"number_of_employees":1300.0,"total_money_raised":1160000000.0,"latitude":37.7768052,"longitude":-122.4169244,"value":9}
{"name":"Facebook_office_1","local":"Facebook_office_1Headquarters","category_code":"social","position":{"type":"Point","coordinates":[-122.151801,37.41605]},"city":"Menlo Park","founded_year":2004,"number_of_employees":5299.0,"total_money_raised":2430000000.0,"latitude":37.41605,"longitude":-122.151801,"value":9}
{"name":"Facebook_office_2","local":"Facebook_office_2Europe HQ","category_code":"social","position":{"type":"Point","coordinates":[-6.267494,53.344104]},"city":"Dublin","founded_year":2004,"number_of_employees":5299.0,"total_money_raised":2430000000.0,"latitude":53.344104,"longitude":-6.267494,"value":9}
{"name":"Facebook_office_3","local":"Facebook_office_3New York","category_code":"social","position":{"type":"Point","coordinates":[-73.9792469,40.7557162]},"city":"New York","founded_year":2004,"number_of_employees":5299.0,"total_money_raised":2430000000.0,"latitude":40.7557162,"longitude":-73.9792469,"value":9}
{"name":"Powerset_office_1","local":null,"category_code":"search","position":{"type":"Point","coordinates":[-122.395289,37.778613]},"city":"San Francisco","founded_year":2006,"number_of_employees":60.0,"total_money_raised":22500000.0,"latitude":37.778613,"longitude":-122.395289,"value":9}
{"name":"Mahalo_office_1","local":"Mahalo_office_1","category_code":"web","position":{"type":"Point","coordinates":[-118.487267,34.017606]},"city":"Culver City","founded_year":2007,"number_of_employees":40.0,"total_money_raised":21000000.0,"latitude":34.017606,"longitude":-118.487267,"value":3}
{"name":"Veoh_office_1","local":"Veoh_office_1","category_code":"games_video","position":{"type":"Point","coordinates":[-117.20834,32.902266]},"city":"San Diego","founded_year":2004,"number_of_employees":null,"total_money_raised":69800000.0,"latitude":32.902266,"longitude":-117.20834,"value":7}
{"name":"Kyte_office_1","local":null,"category_code":"games_video","position":{"type":"Point","coordinates":[-122.409173,37.788482]},"city":"San Francisco","founded_year":2006,"number_of_employees":40.0,"total_money_raised":23400000.0,"latitude":37.788482,"longitude":-122.409173,"value":7}
{"name":"AddThis_office_1","local":"AddThis_office_1HQ - Virginia","category_code":"advertising","position":{"type":"Point","coordinates":[-77.245195,38.926172]},"city":"Vienna","founded_year":2004,"number_of_employees":120.0,"total_money_raised":73000000.0,"latitude":38.926172,"longitude":-77.245195,"value":9}
{"name":"AddThis_office_2","local":"AddThis_office_2New York Office","category_code":"advertising","position":{"type":"Point","coordinates":[-73.996876,40.724604]},"city":"New York","founded_year":2004,"number_of_employees":120.0,"total_money_raised":73000000.0,"latitude":40.724604,"longitude":-73.996876,"value":9}
{"name":"AddThis_office_3","local":"AddThis_office_3Los Angeles Office","category_code":"advertising","position":{"type":"Point","coordinates":[-118.380954,34.0263021]},"city":"Culver City","founded_year":2004,"number_of_employees":120.0,"total_money_raised":73000000.0,"latitude":34.0263021,"longitude":-118.380954,"value":9}
{"name":"AddThis_office_6","local":"AddThis_office_6Michigan Office","category_code":"advertising","position":{"type":"Point","coordinates":[-83.167884,42.557958]},"city":"Troy","founded_year":2004,"number_of_employees":120.0,"total_money_raised":73000000.0,"latitude":42.557958,"longitude":-83.167884,"value":9}
{"name":"OpenX_office_1","local":"OpenX_office_1Headquarters","category_code":"advertising","position":{"type":"Point","coordinates":[-118.1327468,34.1494713]},"city":"Pasadena","founded_year":2008,"number_of_employees":305.0,"total_money_raised":75500000.0,"latitude":34.1494713,"longitude":-118.1327468,"value":9}
{"name":"Jingle Networks_office_1","local":"Jingle Networks_office_1","category_code":"mobile","position":{"type":"Point","coordinates":[-122.173887,37.480999]},"city":"New York","founded_year":2005,"number_of_employees":35.0,"total_money_raised":88700000.0,"latitude":37.480999,"longitude":-122.173887,"value":6}
{"name":"LifeLock_office_1","local":"LifeLock_office_1","category_code":"security","position":{"type":"Point","coordinates":[-111.938739,33.429859]},"city":"Tempe","founded_year":2005,"number_of_employees":644.0,"total_money_raised":178000000.0,"latitude":33.429859,"longitude":-111.938739,"value":14}
{"name":"Prosper_office_1","local":"Prosper_office_1","category_code":"finance","position":{"type":"Point","coordinates":[-122.402524,37.78976]},"city":"San Francisco","founded_year":2006,"number_of_employees":null,"total_money_raised":120000000.0,"latitude":37.78976,"longitude":-122.402524,"value":7}
{"name":"Jajah_office_1","local":"Jajah_office_1Jajah HQ","category_code":"mobile","position":{"type":"Point","coordinates":[-122.0899512,37.4233896]},"city":"Mountain View","founded_year":2005,"number_of_employees":110.0,"total_money_raised":33000000.0,"latitude":37.4233896,"longitude":-122.0899512,"value":11}
{"name":"blogTV_office_1","local":"blogTV_office_1Headquarters","category_code":"games_video","position":{"type":"Point","coordinates":[34.851612,31.046051]},"city":"Ramat Gan","founded_year":2006,"number_of_employees":null,"total_money_raised":3000000.0,"latitude":31.046051,"longitude":34.851612,"value":7}
{"name":"Livestream_office_1","local":"Livestream_office_1Livestream HQ","category_code":"games_video","position":{"type":"Point","coordinates":[-73.995625,40.726155]},"city":"New York","founded_year":2007,"number_of_employees":120.0,"total_money_raised":14700000.0,"latitude":40.726155,"longitude":-73.995625,"value":12}
{"name":"AdaptiveBlue_office_1","local":"AdaptiveBlue_office_1","category_code":"games_video","position":{"type":"Point","coordinates":[-74.3372,40.801358]},"city":"NYC","founded_year":2007,"number_of_employees":15.0,"total_money_raised":24000000.0,"latitude":40.801358,"longitude":-74.3372,"value":7}
{"name":"Pando Networks_office_1","local":null,"category_code":"games_video","position":{"type":"Point","coordinates":[-73.99873,40.722655]},"city":"New York","founded_year":2004,"number_of_employees":23.0,"total_money_raised":11000000.0,"latitude":40.722655,"longitude":-73.99873,"value":7}
{"name":"YouTube_office_1","local":"YouTube_office_1Corporate Headquarters","category_code":"games_video","position":{"type":"Point","coordinates":[-122.426804,37.627971]},"city":"San Bruno","founded_year":2005,"number_of_employees":0.0,"total_money_raised":11500000.0,"latitude":37.627971,"longitude":-122.426804,"value":7}
{"name":"Ustream_office_1","local":"Ustream_office_1San Francisco Office","category_code":"games_video","position":{"type":"Point","coordinates":[-122.07948,37.392936]},"city":"San Francisco","founded_year":2007,"number_of_employees":250.0,"total_money_raised":60100000.0,"latitude":37.392936,"longitude":-122.07948,"value":12}
{"name":"Skype_office_1","local":"Skype_office_1Global HQ","category_code":"software","position":{"type":"Point","coordinates":[-0.131916,51.518132]},"city":"Luxembourg City","founded_year":2003,"number_of_employees":0.0,"total_money_raised":76800000.0,"latitude":51.518132,"longitude":-0.131916,"value":7}
{"name":"GrandCentral_office_1","local":null,"category_code":"mobile","position":{"type":"Point","coordinates":[-121.932202,37.465645]},"city":"Fremont","founded_year":2006,"number_of_employees":3.0,"total_money_raised":4000000.0,"latitude":37.465645,"longitude":-121.932202,"value":6}
{"name":"Ikan_office_1","local":null,"category_code":"web","position":{"type":"Point","coordinates":[-73.563878,41.049051]},"city":"Stamford","founded_year":2003,"number_of_employees":5.0,"total_money_raised":0.0,"latitude":41.049051,"longitude":-73.563878,"value":3}
{"name":"Jobster_office_1","local":null,"category_code":"search","position":{"type":"Point","coordinates":[-122.357242,47.617682]},"city":"Seattle","founded_year":2004,"number_of_employees":null,"total_money_raised":52500000.0,"latitude":47.617682,"longitude":-122.357242,"value":7}
{"name":"Pownce_office_1","local":"Pownce_office_1","category_code":"web","position":{"type":"Point","coordinates":[-122.397224,37.762541]},"city":"San Francisco","founded_year":2007,"number_of_employees":6.0,"total_money_raised":0.0,"latitude":37.762541,"longitude":-122.397224,"value":3}
{"name":"CriticalMetrics_office_1","local":null,"category_code":"web","position":{"type":"Point","coordinates":[-119.306607,37.269175]},"city":null,"founded_year":2007,"number_of_employees":4.0,"total_money_raised":100000.0,"latitude":37.269175,"longitude":-119.306607,"value":3}
{"name":"ZenZui_office_1","local":null,"category_code":"mobile","position":{"type":"Point","coordinates":[-122.347533,47.620716]},"city":"Seattle","founded_year":2007,"number_of_employees":null,"total_money_raised":0.0,"latitude":47.620716,"longitude":-122.347533,"value":6}
{"name":"Revision3_office_1","local":"Revision3_office_1HQ","category_code":"games_video","position":{"type":"Point","coordinates":[-122.388243,37.757758]},"city":"San Francisco","founded_year":2005,"number_of_employees":null,"total_money_raised":9000000.0,"latitude":37.757758,"longitude":-122.388243,"value":7}
{"name":"Spock_office_1","local":"Spock_office_1QLL COMMUNICATIONS","category_code":"search","position":{"type":"Point","coordinates":[-122.217964,37.488336]},"city":"SCHUYLER LAKE","founded_year":2006,"number_of_employees":30.0,"total_money_raised":7000000.0,"latitude":37.488336,"longitude":-122.217964,"value":7}
{"name":"SodaHead_office_1","local":"SodaHead_office_1","category_code":"web","position":{"type":"Point","coordinates":[-119.306607,37.269175]},"city":"Encino","founded_year":2007,"number_of_employees":25.0,"total_money_raised":12700000.0,"latitude":37.269175,"longitude":-119.306607,"value":3}
{"name":"CastTV_office_1","local":null,"category_code":"games_video","position":{"type":"Point","coordinates":[-122.393913,37.780716]},"city":"San Francisco","founded_year":2006,"number_of_employees":0.0,"total_money_raised":3100000.0,"latitude":37.780716,"longitude":-122.393913,"value":7}
{"name":"Wize_office_1","local":"Wize_office_1","category_code":"ecommerce","position":{"type":"Point","coordinates":[-122.302262,37.559287]},"city":"Burlingame","founded_year":2006,"number_of_employees":null,"total_money_raised":4990000.0,"latitude":37.559287,"longitude":-122.302262,"value":1}
{"name":"iSkoot_office_1","local":null,"category_code":"mobile","position":{"type":"Point","coordinates":[-71.118487,42.375392]},"city":"Cambridge","founded_year":2005,"number_of_employees":null,"total_money_raised":32200000.0000000037,"latitude":42.375392,"longitude":-71.118487,"value":6}
{"name":"iSkoot_office_2","local":"iSkoot_office_2iSkoot HQ","category_code":"mobile","position":{"type":"Point","coordinates":[-122.396744,37.780134]},"city":"San Francisco","founded_year":2005,"number_of_employees":null,"total_money_raised":32200000.0000000037,"latitude":37.780134,"longitude":-122.396744,"value":6}
{"name":"Funny Or Die_office_1","local":"Funny Or Die_office_1Head Quarters","category_code":"games_video","position":{"type":"Point","coordinates":[-122.137444,37.421621]},"city":"San Mateo","founded_year":2007,"number_of_employees":null,"total_money_raised":18000000.0,"latitude":37.421621,"longitude":-122.137444,"value":7}
{"name":"ClipBlast!_office_1","local":null,"category_code":"web","position":{"type":"Point","coordinates":[-118.756618,34.155211]},"city":"Agoura Hills","founded_year":2005,"number_of_employees":15.0,"total_money_raised":0.0,"latitude":34.155211,"longitude":-118.756618,"value":3}
{"name":"blinkx_office_1","local":null,"category_code":"games_video","position":{"type":"Point","coordinates":[-122.395089,37.793819]},"city":"San Francisco","founded_year":2004,"number_of_employees":null,"total_money_raised":0.0,"latitude":37.793819,"longitude":-122.395089,"value":7}
{"name":"Mashery_office_1","local":"Mashery_office_1Headquarters","category_code":"enterprise","position":{"type":"Point","coordinates":[-122.4038047,37.7870842]},"city":"San Francisco","founded_year":2006,"number_of_employees":0.0,"total_money_raised":34700000.0,"latitude":37.7870842,"longitude":-122.4038047,"value":-1}
{"name":"Yelp_office_1","local":"Yelp_office_1","category_code":"search","position":{"type":"Point","coordinates":[-122.402195,37.786183]},"city":"San Francisco","founded_year":2004,"number_of_employees":800.0,"total_money_raised":90000000.0,"latitude":37.786183,"longitude":-122.402195,"value":16}
{"name":"Wakoopa_office_1","local":"Wakoopa_office_1Arts & Crafts","category_code":"web","position":{"type":"Point","coordinates":[4.8948623,52.3745228]},"city":"Amsterdam","founded_year":2007,"number_of_employees":8.0,"total_money_raised":1000000.0,"latitude":52.3745228,"longitude":4.8948623,"value":3}
{"name":"Yapta_office_1","local":null,"category_code":"travel","position":{"type":"Point","coordinates":[-122.334264,47.599925]},"city":"Seattle","founded_year":2007,"number_of_employees":null,"total_money_raised":24300000.0,"latitude":47.599925,"longitude":-122.334264,"value":7}
{"name":"Zamzar_office_1","local":"Zamzar_office_1","category_code":"web","position":{"type":"Point","coordinates":[-1.3610845,50.9444598]},"city":"Southampton","founded_year":2006,"number_of_employees":2.0,"total_money_raised":0.0,"latitude":50.9444598,"longitude":-1.3610845,"value":3}
{"name":"Farecast_office_1","local":null,"category_code":"search","position":{"type":"Point","coordinates":[-122.359397,47.620982]},"city":"Seattle","founded_year":2003,"number_of_employees":26.0,"total_money_raised":20600000.0,"latitude":47.620982,"longitude":-122.359397,"value":7}
{"name":"ConVerdge_office_1","local":"ConVerdge_office_1","category_code":"enterprise","position":{"type":"Point","coordinates":[-118.495155,34.0126379]},"city":"Santa Monica","founded_year":2006,"number_of_employees":25.0,"total_money_raised":0.0,"latitude":34.0126379,"longitude":-118.495155,"value":-1}
{"name":"Instructables_office_1","local":"Instructables_office_1","category_code":"web","position":{"type":"Point","coordinates":[-122.4058887,37.7791761]},"city":"San Francisco","founded_year":2005,"number_of_employees":null,"total_money_raised":0.0,"latitude":37.7791761,"longitude":-122.4058887,"value":3}
{"name":"Pageflakes_office_1","local":null,"category_code":"web","position":{"type":"Point","coordinates":[-122.414689,37.758113]},"city":"San Francisco","founded_year":2006,"number_of_employees":20.0,"total_money_raised":4099999.9999999995,"latitude":37.758113,"longitude":-122.414689,"value":3}
{"name":"coRank_office_1","local":null,"category_code":"web","position":{"type":"Point","coordinates":[-122.02421,37.36965]},"city":"Sunnyvale","founded_year":2007,"number_of_employees":0.0,"total_money_raised":0.0,"latitude":37.36965,"longitude":-122.02421,"value":3}
{"name":"Netvibes_office_1","local":"Netvibes_office_1Paris","category_code":"web","position":{"type":"Point","coordinates":[2.34668,48.870806]},"city":"Paris","founded_year":2005,"number_of_employees":35.0,"total_money_raised":16000000.0,"latitude":48.870806,"longitude":2.34668,"value":3}
{"name":"RockYou_office_1","local":"RockYou_office_1","category_code":"games_video","position":{"type":"Point","coordinates":[-122.206893,37.484619]},"city":"Redwood City","founded_year":2005,"number_of_employees":106.0,"total_money_raised":136000000.0,"latitude":37.484619,"longitude":-122.206893,"value":12}
{"name":"KickApps_office_1","local":"KickApps_office_1Headquarters","category_code":"enterprise","position":{"type":"Point","coordinates":[-73.9843328,40.7516611]},"city":"New York","founded_year":2004,"number_of_employees":72.0,"total_money_raised":32000000.0,"latitude":40.7516611,"longitude":-73.9843328,"value":1}
{"name":"KickApps_office_2","local":"KickApps_office_2Los Angeles Office","category_code":"enterprise","position":{"type":"Point","coordinates":[-118.468707,33.991101]},"city":"Venice","founded_year":2004,"number_of_employees":72.0,"total_money_raised":32000000.0,"latitude":33.991101,"longitude":-118.468707,"value":1}
{"name":"KickApps_office_3","local":"KickApps_office_3San Francisco Office","category_code":"enterprise","position":{"type":"Point","coordinates":[-122.4016144,37.7891086]},"city":"San Francisco","founded_year":2004,"number_of_employees":72.0,"total_money_raised":32000000.0,"latitude":37.7891086,"longitude":-122.4016144,"value":1}
{"name":"KickApps_office_4","local":"KickApps_office_4UK Office","category_code":"enterprise","position":{"type":"Point","coordinates":[-0.1356235,51.5094731]},"city":"London","founded_year":2004,"number_of_employees":72.0,"total_money_raised":32000000.0,"latitude":51.5094731,"longitude":-0.1356235,"value":1}
{"name":"Flickr_office_1","local":"Flickr_office_1HQ","category_code":"web","position":{"type":"Point","coordinates":[-122.025485,37.418531]},"city":"Sunnyvale","founded_year":2004,"number_of_employees":36.0,"total_money_raised":0.0,"latitude":37.418531,"longitude":-122.025485,"value":3}
{"name":"WeFi_office_1","local":null,"category_code":"mobile","position":{"type":"Point","coordinates":[-95.712891,37.09024]},"city":"Fairfax","founded_year":2006,"number_of_employees":null,"total_money_raised":10000000.0,"latitude":37.09024,"longitude":-95.712891,"value":6}
{"name":"Bebo_office_1","local":"Bebo_office_1","category_code":"web","position":{"type":"Point","coordinates":[-122.401116,37.782103]},"city":"San Francisco","founded_year":2005,"number_of_employees":0.0,"total_money_raised":15000000.0,"latitude":37.782103,"longitude":-122.401116,"value":3}
{"name":"CrowdVine_office_1","local":"CrowdVine_office_1","category_code":"web","position":{"type":"Point","coordinates":[-122.511687,37.90077]},"city":"Mill Valley","founded_year":2007,"number_of_employees":10.0,"total_money_raised":0.0,"latitude":37.90077,"longitude":-122.511687,"value":3}
{"name":"Dogster_office_1","local":null,"category_code":"web","position":{"type":"Point","coordinates":[-122.400909,37.762681]},"city":"San Francisco","founded_year":2004,"number_of_employees":null,"total_money_raised":1000000.0,"latitude":37.762681,"longitude":-122.400909,"value":3}
{"name":"FeedBurner_office_1","local":null,"category_code":"web","position":{"type":"Point","coordinates":[-87.628912,41.889474]},"city":"Chicago","founded_year":2004,"number_of_employees":null,"total_money_raised":8000000.0,"latitude":41.889474,"longitude":-87.628912,"value":3}
{"name":"TVtrip_office_1","local":null,"category_code":"web","position":{"type":"Point","coordinates":[2.350987,48.856667]},"city":"Paris","founded_year":2007,"number_of_employees":null,"total_money_raised":13800000.0,"latitude":48.856667,"longitude":2.350987,"value":3}
{"name":"WatZatSong_office_1","local":null,"category_code":"web","position":{"type":"Point","coordinates":[2.381514,48.866323]},"city":"Paris","founded_year":2006,"number_of_employees":3.0,"total_money_raised":0.0,"latitude":48.866323,"longitude":2.381514,"value":3}
{"name":"TheFind_office_1","local":"TheFind_office_1","category_code":"ecommerce","position":{"type":"Point","coordinates":[-122.073463,37.391502]},"city":"Mountain View","founded_year":2006,"number_of_employees":null,"total_money_raised":26000000.0,"latitude":37.391502,"longitude":-122.073463,"value":1}
{"name":"Loomia_office_1","local":null,"category_code":"web","position":{"type":"Point","coordinates":[-122.404869,37.796396]},"city":"San Francisco","founded_year":2004,"number_of_employees":null,"total_money_raised":7500000.0,"latitude":37.796396,"longitude":-122.404869,"value":3}
{"name":"Newsvine_office_1","local":null,"category_code":"web","position":{"type":"Point","coordinates":[-122.358484,47.618599]},"city":"Seattle","founded_year":2005,"number_of_employees":8.0,"total_money_raised":1250000.0,"latitude":47.618599,"longitude":-122.358484,"value":3}
{"name":"Meebo_office_1","local":"Meebo_office_1Headquarters","category_code":"web","position":{"type":"Point","coordinates":[-122.079017,37.393679]},"city":"Mountain View","founded_year":2005,"number_of_employees":200.0,"total_money_raised":70000000.0,"latitude":37.393679,"longitude":-122.079017,"value":8}
{"name":"Eventbrite_office_1","local":"Eventbrite_office_1HQ","category_code":"web","position":{"type":"Point","coordinates":[-122.39071,37.779507]},"city":"San Francisco","founded_year":2006,"number_of_employees":200.0,"total_money_raised":140000000.0,"latitude":37.779507,"longitude":-122.39071,"value":8}
{"name":"FlickIM_office_1","local":"FlickIM_office_1HQ","category_code":"mobile","position":{"type":"Point","coordinates":[-122.269259,37.870744]},"city":"Berkeley","founded_year":2006,"number_of_employees":null,"total_money_raised":1600000.0,"latitude":37.870744,"longitude":-122.269259,"value":6}
{"name":"Jamendo_office_1","local":"Jamendo_office_1","category_code":"other","position":{"type":"Point","coordinates":[6.1329985,49.6026778]},"city":"Luxembourg","founded_year":2005,"number_of_employees":20.0,"total_money_raised":0.0,"latitude":49.6026778,"longitude":6.1329985,"value":-4}
{"name":"Terabitz_office_1","local":"Terabitz_office_1HQ","category_code":"web","position":{"type":"Point","coordinates":[-122.159928,37.437328]},"city":"Palo Alto","founded_year":2006,"number_of_employees":12.0,"total_money_raised":10000000.0,"latitude":37.437328,"longitude":-122.159928,"value":3}
{"name":"LinkedIn_office_1","local":"LinkedIn_office_1HQ","category_code":"social","position":{"type":"Point","coordinates":[-122.073635,37.423258]},"city":"Mountain View","founded_year":2003,"number_of_employees":4800.0,"total_money_raised":200000000.0,"latitude":37.423258,"longitude":-122.073635,"value":9}
{"name":"Kaboodle_office_1","local":"Kaboodle_office_1","category_code":"ecommerce","position":{"type":"Point","coordinates":[-122.036301,37.382162]},"city":"Sunnyvale","founded_year":2005,"number_of_employees":null,"total_money_raised":5000000.0,"latitude":37.382162,"longitude":-122.036301,"value":1}
{"name":"Go2Web20_office_1","local":null,"category_code":"web","position":{"type":"Point","coordinates":[34.7595,32.0554]},"city":"Tel Aviv","founded_year":2006,"number_of_employees":0.0,"total_money_raised":0.0,"latitude":32.0554,"longitude":34.7595,"value":3}
{"name":"Carbonite_office_1","local":"Carbonite_office_1Headquarters","category_code":"network_hosting","position":{"type":"Point","coordinates":[-71.076869,42.350571]},"city":"Boston","founded_year":2006,"number_of_employees":68.0,"total_money_raised":66000000.0,"latitude":42.350571,"longitude":-71.076869,"value":9}
{"name":"Wink_office_1","local":"Wink_office_1","category_code":"search","position":{"type":"Point","coordinates":[-122.072981,37.40047]},"city":"Mountain View","founded_year":2004,"number_of_employees":null,"total_money_raised":6200000.0,"latitude":37.40047,"longitude":-122.072981,"value":7}
{"name":"Conduit_office_1","local":"Conduit_office_1","category_code":"advertising","position":{"type":"Point","coordinates":[-122.325248,37.561877]},"city":"Foster City","founded_year":2005,"number_of_employees":215.0,"total_money_raised":110000000.0,"latitude":37.561877,"longitude":-122.325248,"value":9}
{"name":"Box_office_1","local":"Box_office_1HQ","category_code":"network_hosting","position":{"type":"Point","coordinates":[-122.143701,37.425801]},"city":"Los Altos","founded_year":2005,"number_of_employees":950.0,"total_money_raised":409000000.0,"latitude":37.425801,"longitude":-122.143701,"value":16}
{"name":"GigaOM_office_1","local":null,"category_code":"news","position":{"type":"Point","coordinates":[-122.419204,37.775196]},"city":"San Francisco","founded_year":2006,"number_of_employees":75.0,"total_money_raised":14300000.0,"latitude":37.775196,"longitude":-122.419204,"value":9}
{"name":"GigaOM_office_2","local":"GigaOM_office_2","category_code":"news","position":{"type":"Point","coordinates":[-74.0059731,40.7143528]},"city":"New York","founded_year":2006,"number_of_employees":75.0,"total_money_raised":14300000.0,"latitude":40.7143528,"longitude":-74.0059731,"value":9}
{"name":"Redfin_office_1","local":"Redfin_office_1","category_code":"real_estate","position":{"type":"Point","coordinates":[-122.333253,47.603122]},"city":"Seattle","founded_year":2004,"number_of_employees":100.0,"total_money_raised":96800000.0,"latitude":47.603122,"longitude":-122.333253,"value":12}
{"name":"Zvents_office_1","local":null,"category_code":"web","position":{"type":"Point","coordinates":[-122.301534,37.553121]},"city":"San Mateo","founded_year":2005,"number_of_employees":55.0,"total_money_raised":31200000.0,"latitude":37.553121,"longitude":-122.301534,"value":5}
{"name":"Techmeme_office_1","local":"Techmeme_office_1","category_code":"web","position":{"type":"Point","coordinates":[-122.3985871,37.7618242]},"city":"San Francisco","founded_year":2004,"number_of_employees":11.0,"total_money_raised":0.0,"latitude":37.7618242,"longitude":-122.3985871,"value":3}
{"name":"Seesmic_office_1","local":"Seesmic_office_1","category_code":"web","position":{"type":"Point","coordinates":[-122.419204,37.775196]},"city":"San Francisco","founded_year":2007,"number_of_employees":13.0,"total_money_raised":16000000.0,"latitude":37.775196,"longitude":-122.419204,"value":3}
{"name":"Eventful_office_1","local":"Eventful_office_1","category_code":"web","position":{"type":"Point","coordinates":[-117.206292,32.872081]},"city":"San Diego","founded_year":2004,"number_of_employees":60.0,"total_money_raised":19600000.0,"latitude":32.872081,"longitude":-117.206292,"value":5}
{"name":"Oodle_office_1","local":null,"category_code":"social","position":{"type":"Point","coordinates":[-122.324621,37.563585]},"city":"San Mateo","founded_year":2004,"number_of_employees":null,"total_money_raised":23100000.0,"latitude":37.563585,"longitude":-122.324621,"value":0}
{"name":"oDesk_office_1","local":"oDesk_office_1","category_code":"web","position":{"type":"Point","coordinates":[-122.178557,37.479952]},"city":"Redwood City","founded_year":2005,"number_of_employees":120.0,"total_money_raised":44000000.0,"latitude":37.479952,"longitude":-122.178557,"value":8}
{"name":"Cofoundr_office_1","local":null,"category_code":"network_hosting","position":{"type":"Point","coordinates":[-122.420903,37.796164]},"city":null,"founded_year":2007,"number_of_employees":0.0,"total_money_raised":0.0,"latitude":37.796164,"longitude":-122.420903,"value":7}
{"name":"Simply Hired_office_1","local":"Simply Hired_office_1HQ","category_code":"search","position":{"type":"Point","coordinates":[-122.0780632,37.4219165]},"city":"Sunnyvale","founded_year":2004,"number_of_employees":100.0,"total_money_raised":22300000.0,"latitude":37.4219165,"longitude":-122.0780632,"value":12}
{"name":"Gumiyo_office_1","local":"Gumiyo_office_1","category_code":"web","position":{"type":"Point","coordinates":[-118.601532,34.184598]},"city":"Woodland Hills","founded_year":2006,"number_of_employees":0.0,"total_money_raised":0.0,"latitude":34.184598,"longitude":-118.601532,"value":3}
{"name":"stylediary_office_1","local":null,"category_code":"web","position":{"type":"Point","coordinates":[-118.350486,34.070436]},"city":"","founded_year":2004,"number_of_employees":0.0,"total_money_raised":0.0,"latitude":34.070436,"longitude":-118.350486,"value":3}
{"name":"ooma_office_1","local":"ooma_office_1","category_code":"hardware","position":{"type":"Point","coordinates":[-122.116026,37.451958]},"city":"Palo Alto","founded_year":2004,"number_of_employees":47.0,"total_money_raised":81300000.0,"latitude":37.451958,"longitude":-122.116026,"value":7}
{"name":"GoingOn_office_1","local":"GoingOn_office_1GoingOn Networks, Inc.","category_code":"software","position":{"type":"Point","coordinates":[-122.392142,37.782263]},"city":"San Francisco","founded_year":2008,"number_of_employees":40.0,"total_money_raised":8500000.0,"latitude":37.782263,"longitude":-122.392142,"value":7}
{"name":"MyPublicInfo_office_1","local":null,"category_code":"web","position":{"type":"Point","coordinates":[-77.072003,38.897428]},"city":"Arlington","founded_year":2004,"number_of_employees":7.0,"total_money_raised":0.0,"latitude":38.897428,"longitude":-77.072003,"value":3}
{"name":"Flixster_office_1","local":"Flixster_office_1","category_code":"web","position":{"type":"Point","coordinates":[-122.406676,37.766909]},"city":"San Francisco","founded_year":2006,"number_of_employees":75.0,"total_money_raised":7180000.0,"latitude":37.766909,"longitude":-122.406676,"value":5}
{"name":"Checkster_office_1","local":null,"category_code":"web","position":{"type":"Point","coordinates":[-122.547445,37.905544]},"city":"Mill Valley","founded_year":2006,"number_of_employees":0.0,"total_money_raised":0.0,"latitude":37.905544,"longitude":-122.547445,"value":3}
{"name":"IceRocket_office_1","local":null,"category_code":"search","position":{"type":"Point","coordinates":[-96.797111,32.781078]},"city":"Dallas","founded_year":2004,"number_of_employees":null,"total_money_raised":300000.0,"latitude":32.781078,"longitude":-96.797111,"value":7}
{"name":"spigit_office_1","local":"spigit_office_1","category_code":"software","position":{"type":"Point","coordinates":[-121.8731805,37.6637279]},"city":"Pleasanton","founded_year":2006,"number_of_employees":120.0,"total_money_raised":55600000.0,"latitude":37.6637279,"longitude":-121.8731805,"value":12}
{"name":"spigit_office_2","local":"spigit_office_2One Freedom Drive","category_code":"software","position":{"type":"Point","coordinates":[-77.3592746,38.9590083]},"city":"Reston","founded_year":2006,"number_of_employees":120.0,"total_money_raised":55600000.0,"latitude":38.9590083,"longitude":-77.3592746,"value":12}
{"name":"spigit_office_3","local":"spigit_office_3","category_code":"software","position":{"type":"Point","coordinates":[-0.1394759,51.5170385]},"city":"London","founded_year":2006,"number_of_employees":120.0,"total_money_raised":55600000.0,"latitude":51.5170385,"longitude":-0.1394759,"value":12}
{"name":"ConnectMeAnywhere_office_1","local":null,"category_code":"web","position":{"type":"Point","coordinates":[-0.205349,51.514935]},"city":"London W11 2HX","founded_year":2006,"number_of_employees":null,"total_money_raised":0.0,"latitude":51.514935,"longitude":-0.205349,"value":3}
{"name":"Bazaarvoice_office_1","local":"Bazaarvoice_office_1Head Office","category_code":"software","position":{"type":"Point","coordinates":[-97.717667,30.407545]},"city":"Austin","founded_year":2005,"number_of_employees":600.0,"total_money_raised":131000000.0,"latitude":30.407545,"longitude":-97.717667,"value":14}
{"name":"Clipperz_office_1","local":null,"category_code":"web","position":{"type":"Point","coordinates":[11.978686,44.418166]},"city":"Bagnacavallo","founded_year":2005,"number_of_employees":2.0,"total_money_raised":0.0,"latitude":44.418166,"longitude":11.978686,"value":3}
{"name":"hi5_office_1","local":"hi5_office_1","category_code":"games_video","position":{"type":"Point","coordinates":[-122.400558,37.788668]},"city":"San Francisco","founded_year":2003,"number_of_employees":100.0,"total_money_raised":52000000.0,"latitude":37.788668,"longitude":-122.400558,"value":12}
{"name":"Tagged_office_1","local":"Tagged_office_1San Francisco, USA","category_code":"social","position":{"type":"Point","coordinates":[-122.4186,37.7753]},"city":"San Francisco","founded_year":2004,"number_of_employees":162.0,"total_money_raised":28700000.0,"latitude":37.7753,"longitude":-122.4186,"value":5}
{"name":"ScanScout_office_1","local":"ScanScout_office_1Headquarters","category_code":"advertising","position":{"type":"Point","coordinates":[-71.051931,42.340889]},"city":"Boston","founded_year":2005,"number_of_employees":40.0,"total_money_raised":17500000.0,"latitude":42.340889,"longitude":-71.051931,"value":4}
{"name":"ScanScout_office_2","local":"ScanScout_office_2New York Office","category_code":"advertising","position":{"type":"Point","coordinates":[-73.993158,40.739833]},"city":"New York","founded_year":2005,"number_of_employees":40.0,"total_money_raised":17500000.0,"latitude":40.739833,"longitude":-73.993158,"value":4}
{"name":"ScanScout_office_3","local":"ScanScout_office_3Los Angeles Office","category_code":"advertising","position":{"type":"Point","coordinates":[-118.459995,34.050887]},"city":"Los Angeles","founded_year":2005,"number_of_employees":40.0,"total_money_raised":17500000.0,"latitude":34.050887,"longitude":-118.459995,"value":4}
{"name":"Indeed_office_1","local":"Indeed_office_1","category_code":"web","position":{"type":"Point","coordinates":[-73.558082,41.038155]},"city":"Stamford","founded_year":2004,"number_of_employees":null,"total_money_raised":5000000.0,"latitude":41.038155,"longitude":-73.558082,"value":3}
{"name":"Jaxtr_office_1","local":null,"category_code":"mobile","position":{"type":"Point","coordinates":[-122.18676,37.451026]},"city":"Menlo Park","founded_year":2005,"number_of_employees":30.0,"total_money_raised":21500000.0,"latitude":37.451026,"longitude":-122.18676,"value":6}
{"name":"ONEsite_office_1","local":null,"category_code":"other","position":{"type":"Point","coordinates":[-97.5736,35.612679]},"city":"Oklahoma City","founded_year":2005,"number_of_employees":50.0,"total_money_raised":0.0,"latitude":35.612679,"longitude":-97.5736,"value":-2}
{"name":"Wallhogs_office_1","local":"Wallhogs_office_1","category_code":"public_relations","position":{"type":"Point","coordinates":[-79.462703,40.30305]},"city":"Greensburg","founded_year":2006,"number_of_employees":52.0,"total_money_raised":0.0,"latitude":40.30305,"longitude":-79.462703,"value":9}
{"name":"introNetworks_office_1","local":"introNetworks_office_1Corporate Headquarters","category_code":"web","position":{"type":"Point","coordinates":[-119.641821,34.42071]},"city":"Montecito","founded_year":2003,"number_of_employees":11.0,"total_money_raised":2700000.0,"latitude":34.42071,"longitude":-119.641821,"value":3}
{"name":"Curse_office_1","local":"Curse_office_1San Francisco","category_code":"games_video","position":{"type":"Point","coordinates":[-122.399972,37.787092]},"city":"San Francisco","founded_year":2006,"number_of_employees":58.0,"total_money_raised":12000000.0,"latitude":37.787092,"longitude":-122.399972,"value":9}
{"name":"Respectance_office_1","local":"Respectance_office_1","category_code":"web","position":{"type":"Point","coordinates":[-122.321836,37.55909]},"city":"San Mateo","founded_year":2006,"number_of_employees":15.0,"total_money_raised":1750000.0,"latitude":37.55909,"longitude":-122.321836,"value":3}
{"name":"GoLightly_office_1","local":null,"category_code":"software","position":{"type":"Point","coordinates":[-122.537302,37.898575]},"city":"Mill Valley","founded_year":2005,"number_of_employees":null,"total_money_raised":0.0,"latitude":37.898575,"longitude":-122.537302,"value":7}
{"name":"Kiptronic_office_1","local":"Kiptronic_office_1","category_code":"advertising","position":{"type":"Point","coordinates":[-122.402349,37.792394]},"city":"San Francisco","founded_year":2005,"number_of_employees":20.0,"total_money_raised":7300000.0,"latitude":37.792394,"longitude":-122.402349,"value":4}
{"name":"Grockit_office_1","local":"Grockit_office_1","category_code":"social","position":{"type":"Point","coordinates":[-122.419204,37.775196]},"city":"San Francisco","founded_year":2006,"number_of_employees":25.0,"total_money_raised":44700000.0,"latitude":37.775196,"longitude":-122.419204,"value":0}
{"name":"eBuddy_office_1","local":"eBuddy_office_1Global Headquarters","category_code":"messaging","position":{"type":"Point","coordinates":[4.8919457,52.3640933]},"city":"Amsterdam","founded_year":2003,"number_of_employees":90.0,"total_money_raised":11500000.0,"latitude":52.3640933,"longitude":4.8919457,"value":-4}
{"name":"eBuddy_office_2","local":"eBuddy_office_2US Headquarters","category_code":"messaging","position":{"type":"Point","coordinates":[-122.410943,37.787683]},"city":"San Francisco","founded_year":2003,"number_of_employees":90.0,"total_money_raised":11500000.0,"latitude":37.787683,"longitude":-122.410943,"value":-4}
{"name":"eBuddy_office_3","local":"eBuddy_office_3Singapore office","category_code":"messaging","position":{"type":"Point","coordinates":[-0.126236,51.500152]},"city":"Singapore","founded_year":2003,"number_of_employees":90.0,"total_money_raised":11500000.0,"latitude":51.500152,"longitude":-0.126236,"value":-4}
{"name":"Zenfolio_office_1","local":"Zenfolio_office_1","category_code":"network_hosting","position":{"type":"Point","coordinates":[-122.1802812,37.4484914]},"city":"Menlo Park","founded_year":2005,"number_of_employees":null,"total_money_raised":0.0,"latitude":37.4484914,"longitude":-122.1802812,"value":7}
{"name":"FeVote_office_1","local":"FeVote_office_1","category_code":"web","position":{"type":"Point","coordinates":[-122.417928,37.779392]},"city":"San Francisco","founded_year":2007,"number_of_employees":1.0,"total_money_raised":0.0,"latitude":37.779392,"longitude":-122.417928,"value":3}
{"name":"JumpBox_office_1","local":"JumpBox_office_1","category_code":"software","position":{"type":"Point","coordinates":[-111.944967,33.429864]},"city":"Phoenix","founded_year":2006,"number_of_employees":5.0,"total_money_raised":0.0,"latitude":33.429864,"longitude":-111.944967,"value":7}
{"name":"Relationals_office_1","local":null,"category_code":"web","position":{"type":"Point","coordinates":[-121.992132,37.384651]},"city":"Sunnyvale","founded_year":2007,"number_of_employees":null,"total_money_raised":0.0,"latitude":37.384651,"longitude":-121.992132,"value":3}
{"name":"Phonezoo_office_1","local":"Phonezoo_office_1","category_code":"web","position":{"type":"Point","coordinates":[-121.991471,37.386376]},"city":"Sunnyvale","founded_year":2006,"number_of_employees":null,"total_money_raised":2060000.0,"latitude":37.386376,"longitude":-121.991471,"value":3}
{"name":"Vuze_office_1","local":"Vuze_office_1Headquarters","category_code":"games_video","position":{"type":"Point","coordinates":[-122.2262606,37.4858654]},"city":"San Mateo","founded_year":2005,"number_of_employees":20.0,"total_money_raised":34000000.0,"latitude":37.4858654,"longitude":-122.2262606,"value":7}
{"name":"Nononina_office_1","local":"Nononina_office_1SF Bay Area","category_code":"web","position":{"type":"Point","coordinates":[-119.306607,37.269175]},"city":"","founded_year":2007,"number_of_employees":null,"total_money_raised":0.0,"latitude":37.269175,"longitude":-119.306607,"value":3}
{"name":"Wishpot_office_1","local":"Wishpot_office_1Headquarters","category_code":"ecommerce","position":{"type":"Point","coordinates":[-122.347533,47.620716]},"city":"Seattle","founded_year":2006,"number_of_employees":10.0,"total_money_raised":1300000.0,"latitude":47.620716,"longitude":-122.347533,"value":1}
{"name":"PodTech_office_1","local":null,"category_code":"games_video","position":{"type":"Point","coordinates":[-122.154176,37.408256]},"city":"Palo Alto","founded_year":2005,"number_of_employees":null,"total_money_raised":7500000.0,"latitude":37.408256,"longitude":-122.154176,"value":7}
{"name":"NowPublic_office_1","local":"NowPublic_office_1","category_code":"web","position":{"type":"Point","coordinates":[-123.103986,49.283376]},"city":"Vancouver","founded_year":2005,"number_of_employees":null,"total_money_raised":12000000.0,"latitude":49.283376,"longitude":-123.103986,"value":3}
{"name":"DOmedia_office_1","local":"DOmedia_office_1World Headquarters","category_code":"advertising","position":{"type":"Point","coordinates":[-83.005038,39.967704]},"city":"Columbus","founded_year":2007,"number_of_employees":null,"total_money_raised":0.0,"latitude":39.967704,"longitude":-83.005038,"value":4}
{"name":"Crackle_office_1","local":"Crackle_office_1","category_code":"games_video","position":{"type":"Point","coordinates":[-118.401579,34.017506]},"city":"Culver City","founded_year":2004,"number_of_employees":null,"total_money_raised":1750000.0,"latitude":34.017506,"longitude":-118.401579,"value":7}
{"name":"Clipmarks_office_1","local":null,"category_code":"photo_video","position":{"type":"Point","coordinates":[-73.985506,40.757929]},"city":"New York","founded_year":2003,"number_of_employees":10.0,"total_money_raised":0.0,"latitude":40.757929,"longitude":-73.985506,"value":7}
{"name":"Forbes_office_1","local":"Forbes_office_1","category_code":"web","position":{"type":"Point","coordinates":[-73.993302,40.736416]},"city":"New York","founded_year":2007,"number_of_employees":null,"total_money_raised":0.0,"latitude":40.736416,"longitude":-73.993302,"value":3}
{"name":"Reddit_office_1","local":"Reddit_office_1","category_code":"web","position":{"type":"Point","coordinates":[-122.395257,37.780883]},"city":"San Francisco","founded_year":2005,"number_of_employees":null,"total_money_raised":100000.0,"latitude":37.780883,"longitude":-122.395257,"value":3}
{"name":"IntenseDebate_office_1","local":null,"category_code":"web","position":{"type":"Point","coordinates":[-105.276843,40.010492]},"city":"Boulder","founded_year":2006,"number_of_employees":4.0,"total_money_raised":515000.0,"latitude":40.010492,"longitude":-105.276843,"value":3}
{"name":"Rebtel_office_1","local":"Rebtel_office_1Headquarters","category_code":"mobile","position":{"type":"Point","coordinates":[18.1582777,59.3167843]},"city":"Nacka Strand","founded_year":2006,"number_of_employees":75.0,"total_money_raised":20000000.0,"latitude":59.3167843,"longitude":18.1582777,"value":8}
{"name":"Lotame_office_1","local":"Lotame_office_1Headquarters","category_code":"advertising","position":{"type":"Point","coordinates":[-76.77514,39.205649]},"city":"Columbia","founded_year":2006,"number_of_employees":75.0,"total_money_raised":34000000.0,"latitude":39.205649,"longitude":-76.77514,"value":6}
{"name":"Lotame_office_2","local":"Lotame_office_2New York Office","category_code":"advertising","position":{"type":"Point","coordinates":[-73.995487,40.753631]},"city":"New York","founded_year":2006,"number_of_employees":75.0,"total_money_raised":34000000.0,"latitude":40.753631,"longitude":-73.995487,"value":6}
{"name":"Lotame_office_3","local":"Lotame_office_3Boston Office","category_code":"advertising","position":{"type":"Point","coordinates":[-71.056604,42.359146]},"city":"Cambridge","founded_year":2006,"number_of_employees":75.0,"total_money_raised":34000000.0,"latitude":42.359146,"longitude":-71.056604,"value":6}
{"name":"BuddyTV_office_1","local":"BuddyTV_office_1Seattle Headquarters","category_code":"games_video","position":{"type":"Point","coordinates":[-122.356756,47.61968]},"city":"Seattle","founded_year":2005,"number_of_employees":20.0,"total_money_raised":10600000.0,"latitude":47.61968,"longitude":-122.356756,"value":7}
{"name":"Buxfer_office_1","local":"Buxfer_office_1","category_code":"web","position":{"type":"Point","coordinates":[-122.073003,37.400465]},"city":"Mountain View","founded_year":2007,"number_of_employees":4.0,"total_money_raised":315000.0,"latitude":37.400465,"longitude":-122.073003,"value":3}
{"name":"Retrevo_office_1","local":"Retrevo_office_1","category_code":"web","position":{"type":"Point","coordinates":[-122.034021,37.368594]},"city":"Sunnyvale","founded_year":2006,"number_of_employees":null,"total_money_raised":11900000.0,"latitude":37.368594,"longitude":-122.034021,"value":3}
{"name":"boo-box_office_1","local":"boo-box_office_1boo-land","category_code":"advertising","position":{"type":"Point","coordinates":[-46.679287,-23.558584]},"city":"Sao Paulo","founded_year":2007,"number_of_employees":50.0,"total_money_raised":300000.0,"latitude":-23.558584,"longitude":-46.679287,"value":6}
{"name":"TextPayMe_office_1","local":null,"category_code":"web","position":{"type":"Point","coordinates":[-122.115633,47.672229]},"city":"Redmond","founded_year":2005,"number_of_employees":null,"total_money_raised":0.0,"latitude":47.672229,"longitude":-122.115633,"value":3}
{"name":"Hightail_office_1","local":"Hightail_office_1","category_code":"network_hosting","position":{"type":"Point","coordinates":[-121.935688,37.288974]},"city":"Campbell","founded_year":2004,"number_of_employees":200.0,"total_money_raised":82700000.0,"latitude":37.288974,"longitude":-121.935688,"value":12}
{"name":"Brightcove_office_1","local":"Brightcove_office_1Headquarters","category_code":"enterprise","position":{"type":"Point","coordinates":[-71.086596,42.362993]},"city":"Cambridge","founded_year":2004,"number_of_employees":220.0,"total_money_raised":103000000.0,"latitude":42.362993,"longitude":-71.086596,"value":4}
{"name":"BillMonk_office_1","local":null,"category_code":"web","position":{"type":"Point","coordinates":[-122.347533,47.620716]},"city":"Seattle","founded_year":2005,"number_of_employees":null,"total_money_raised":0.0,"latitude":47.620716,"longitude":-122.347533,"value":3}
{"name":"obopay_office_1","local":"obopay_office_1","category_code":"mobile","position":{"type":"Point","coordinates":[-122.258037,37.524729]},"city":"Redwood City","founded_year":2005,"number_of_employees":null,"total_money_raised":145000000.0,"latitude":37.524729,"longitude":-122.258037,"value":6}
{"name":"Nimbuzz_office_1","local":"Nimbuzz_office_1Nimbuzz Netherlands","category_code":"mobile","position":{"type":"Point","coordinates":[4.5464658,51.9122575]},"city":"Capelle a\/d IJssel","founded_year":2006,"number_of_employees":140.0,"total_money_raised":25000000.0,"latitude":51.9122575,"longitude":4.5464658,"value":11}
{"name":"MeeMix_office_1","local":null,"category_code":"web","position":{"type":"Point","coordinates":[34.7595,32.0554]},"city":"Tel Aviv","founded_year":2006,"number_of_employees":9.0,"total_money_raised":0.0,"latitude":32.0554,"longitude":34.7595,"value":3}
{"name":"Rocketboom_office_1","local":null,"category_code":"news","position":{"type":"Point","coordinates":[-73.97785,40.797364]},"city":"New York","founded_year":2007,"number_of_employees":null,"total_money_raised":1500000.0,"latitude":40.797364,"longitude":-73.97785,"value":7}
{"name":"WallStrip_office_1","local":null,"category_code":"games_video","position":{"type":"Point","coordinates":[-95.712891,37.09024]},"city":null,"founded_year":2006,"number_of_employees":null,"total_money_raised":600000.0,"latitude":37.09024,"longitude":-95.712891,"value":7}
{"name":"Kaneva_office_1","local":null,"category_code":"web","position":{"type":"Point","coordinates":[-84.350663,33.916374]},"city":"Atlanta","founded_year":2004,"number_of_employees":null,"total_money_raised":0.0,"latitude":33.916374,"longitude":-84.350663,"value":3}
{"name":"IMVU_office_1","local":"IMVU_office_1","category_code":"web","position":{"type":"Point","coordinates":[-122.0727749,37.3927975]},"city":"Mountain View","founded_year":2004,"number_of_employees":150.0,"total_money_raised":29000000.0,"latitude":37.3927975,"longitude":-122.0727749,"value":8}
{"name":"madKast_office_1","local":null,"category_code":"web","position":{"type":"Point","coordinates":[-105.276843,40.010492]},"city":"Boulder","founded_year":2007,"number_of_employees":null,"total_money_raised":315000.0,"latitude":40.010492,"longitude":-105.276843,"value":3}
{"name":"Outdoorzy_office_1","local":null,"category_code":"network_hosting","position":{"type":"Point","coordinates":[-86.463026,37.018244]},"city":"Bowling Green","founded_year":2006,"number_of_employees":2.0,"total_money_raised":0.0,"latitude":37.018244,"longitude":-86.463026,"value":7}
{"name":"Scrybe_office_1","local":"Scrybe_office_1","category_code":"enterprise","position":{"type":"Point","coordinates":[-74.761403,40.270666]},"city":"San Francisco","founded_year":2007,"number_of_employees":20.0,"total_money_raised":1310000.0,"latitude":40.270666,"longitude":-74.761403,"value":-1}
{"name":"Aniboom_office_1","local":null,"category_code":"games_video","position":{"type":"Point","coordinates":[34.851612,31.046051]},"city":null,"founded_year":2006,"number_of_employees":25.0,"total_money_raised":14500000.0,"latitude":31.046051,"longitude":34.851612,"value":7}
{"name":"Webkinz_office_1","local":null,"category_code":"web","position":{"type":"Point","coordinates":[-79.549577,43.76969]},"city":"Woodbridge","founded_year":2005,"number_of_employees":8657.0,"total_money_raised":0.0,"latitude":43.76969,"longitude":-79.549577,"value":12}
{"name":"Mokitown_office_1","local":null,"category_code":"web","position":{"type":"Point","coordinates":[-95.712891,37.09024]},"city":null,"founded_year":2011,"number_of_employees":null,"total_money_raised":0.0,"latitude":37.09024,"longitude":-95.712891,"value":3}
{"name":"Viagogo_office_1","local":"Viagogo_office_1","category_code":"ecommerce","position":{"type":"Point","coordinates":[-0.126236,51.500152]},"city":"San Francisco","founded_year":2005,"number_of_employees":null,"total_money_raised":65000000.0,"latitude":51.500152,"longitude":-0.126236,"value":1}
{"name":"Pickle_office_1","local":null,"category_code":"web","position":{"type":"Point","coordinates":[-77.081732,38.892371]},"city":"Arlington","founded_year":2006,"number_of_employees":null,"total_money_raised":0.0,"latitude":38.892371,"longitude":-77.081732,"value":3}
{"name":"GreatCall_office_1","local":"GreatCall_office_1","category_code":"mobile","position":{"type":"Point","coordinates":[-117.265191,32.964294]},"city":"San Diego","founded_year":2005,"number_of_employees":null,"total_money_raised":75300000.0,"latitude":32.964294,"longitude":-117.265191,"value":6}
{"name":"Echo_office_1","local":"Echo_office_1headquarter","category_code":"enterprise","position":{"type":"Point","coordinates":[-122.1879633,38.0729365]},"city":"San francisco","founded_year":2007,"number_of_employees":50.0,"total_money_raised":4800000.0,"latitude":38.0729365,"longitude":-122.1879633,"value":1}
{"name":"MindTouch_office_1","local":"MindTouch_office_1","category_code":"enterprise","position":{"type":"Point","coordinates":[-117.167831,32.720656]},"city":"San Diego","founded_year":2004,"number_of_employees":0.0,"total_money_raised":0.0,"latitude":32.720656,"longitude":-117.167831,"value":-1}
{"name":"Metacafe_office_1","local":"Metacafe_office_1","category_code":"games_video","position":{"type":"Point","coordinates":[-122.159928,37.437328]},"city":"San Francisco","founded_year":2003,"number_of_employees":null,"total_money_raised":50000000.0,"latitude":37.437328,"longitude":-122.159928,"value":7}
{"name":"ChaCha_office_1","local":"ChaCha_office_1Headquarters","category_code":"advertising","position":{"type":"Point","coordinates":[-86.130347,39.998641]},"city":"Carmel","founded_year":2005,"number_of_employees":70.0,"total_money_raised":89000000.0,"latitude":39.998641,"longitude":-86.130347,"value":6}
{"name":"Flock_office_1","local":"Flock_office_1","category_code":"web","position":{"type":"Point","coordinates":[-122.228843,37.491356]},"city":"Menlo Park","founded_year":2005,"number_of_employees":40.0,"total_money_raised":28300000.0,"latitude":37.491356,"longitude":-122.228843,"value":3}
{"name":"Sportingo_office_1","local":null,"category_code":"web","position":{"type":"Point","coordinates":[-96.76492,17.08881]},"city":null,"founded_year":2006,"number_of_employees":0.0,"total_money_raised":3200000.0,"latitude":17.08881,"longitude":-96.76492,"value":3}
{"name":"Kontera_office_1","local":null,"category_code":"advertising","position":{"type":"Point","coordinates":[-122.411157,37.767575]},"city":"San Francisco","founded_year":2003,"number_of_employees":null,"total_money_raised":36100000.0,"latitude":37.767575,"longitude":-122.411157,"value":4}
{"name":"Splashup_office_1","local":null,"category_code":"web","position":{"type":"Point","coordinates":[-95.712891,37.09024]},"city":"","founded_year":2007,"number_of_employees":null,"total_money_raised":10000.0,"latitude":37.09024,"longitude":-95.712891,"value":3}
{"name":"Curverider_office_1","local":"Curverider_office_1","category_code":"network_hosting","position":{"type":"Point","coordinates":[-1.197534,51.785428]},"city":"London","founded_year":2005,"number_of_employees":5.0,"total_money_raised":300000.0,"latitude":51.785428,"longitude":-1.197534,"value":7}
{"name":"SomethingSimpler_office_1","local":null,"category_code":"search","position":{"type":"Point","coordinates":[-123.138565,49.263588]},"city":"Vancouver","founded_year":2007,"number_of_employees":null,"total_money_raised":0.0,"latitude":49.263588,"longitude":-123.138565,"value":7}
{"name":"Dropbox_office_1","local":"Dropbox_office_1Headquarters","category_code":"software","position":{"type":"Point","coordinates":[-122.4084994,37.7909427]},"city":"San Francisco","founded_year":2007,"number_of_employees":350.0,"total_money_raised":257000000.0,"latitude":37.7909427,"longitude":-122.4084994,"value":12}
{"name":"TokBox_office_1","local":"TokBox_office_1Corporate Headquarters","category_code":"messaging","position":{"type":"Point","coordinates":[-122.39071,37.779507]},"city":"San Francisco","founded_year":2007,"number_of_employees":55.0,"total_money_raised":26000000.0,"latitude":37.779507,"longitude":-122.39071,"value":-4}
{"name":"Techstars_office_1","local":"Techstars_office_1HQ","category_code":"finance","position":{"type":"Point","coordinates":[-105.276843,40.010492]},"city":"Boulder","founded_year":2006,"number_of_employees":30.0,"total_money_raised":34000000.0,"latitude":40.010492,"longitude":-105.276843,"value":7}
{"name":"Weebly_office_1","local":"Weebly_office_1","category_code":"web","position":{"type":"Point","coordinates":[-122.400729,37.795555]},"city":"San Francisco","founded_year":2006,"number_of_employees":70.0,"total_money_raised":670000.0,"latitude":37.795555,"longitude":-122.400729,"value":5}
{"name":"Yola_office_1","local":"Yola_office_1Yola San Francisco","category_code":"web","position":{"type":"Point","coordinates":[-122.3954751,37.7911148]},"city":"San Francisco","founded_year":2007,"number_of_employees":70.0,"total_money_raised":25000000.0,"latitude":37.7911148,"longitude":-122.3954751,"value":5}
{"name":"Kongregate_office_1","local":"Kongregate_office_1","category_code":"games_video","position":{"type":"Point","coordinates":[-122.401245,37.786942]},"city":"San Francisco","founded_year":2006,"number_of_employees":20.0,"total_money_raised":19000000.0,"latitude":37.786942,"longitude":-122.401245,"value":7}
{"name":"Inneractive_office_1","local":"Inneractive_office_1","category_code":"advertising","position":{"type":"Point","coordinates":[-122.3229235,37.5646055]},"city":"San Mateo","founded_year":2007,"number_of_employees":0.0,"total_money_raised":8500000.0,"latitude":37.5646055,"longitude":-122.3229235,"value":4}
{"name":"Socialthing_office_1","local":"Socialthing_office_1HQ","category_code":"network_hosting","position":{"type":"Point","coordinates":[-105.2762236,40.0186731]},"city":"Boulder","founded_year":2007,"number_of_employees":5.0,"total_money_raised":415000.0,"latitude":40.0186731,"longitude":-105.2762236,"value":7}
{"name":"BitTorrent_office_1","local":"BitTorrent_office_1","category_code":"web","position":{"type":"Point","coordinates":[-122.394668,37.790998]},"city":"San Francisco","founded_year":2004,"number_of_employees":80.0,"total_money_raised":40800000.0,"latitude":37.790998,"longitude":-122.394668,"value":5}
{"name":"Filtrbox_office_1","local":"Filtrbox_office_1HQ","category_code":"web","position":{"type":"Point","coordinates":[-105.276843,40.010492]},"city":"Palo Alto","founded_year":2007,"number_of_employees":14.0,"total_money_raised":1920000.0,"latitude":40.010492,"longitude":-105.276843,"value":3}
{"name":"Bountii_office_1","local":"Bountii_office_1","category_code":"ecommerce","position":{"type":"Point","coordinates":[-122.159928,37.437328]},"city":"Palo Alto","founded_year":2007,"number_of_employees":null,"total_money_raised":15000.0,"latitude":37.437328,"longitude":-122.159928,"value":1}
{"name":"Eventbee_office_1","local":"Eventbee_office_1","category_code":"web","position":{"type":"Point","coordinates":[-122.007172,37.383779]},"city":"San Francisco","founded_year":2003,"number_of_employees":null,"total_money_raised":0.0,"latitude":37.383779,"longitude":-122.007172,"value":3}
{"name":"Cloudant_office_1","local":"Cloudant_office_1","category_code":"enterprise","position":{"type":"Point","coordinates":[-71.05781,42.35892]},"city":"Boston","founded_year":2008,"number_of_employees":70.0,"total_money_raised":18300000.0,"latitude":42.35892,"longitude":-71.05781,"value":1}
{"name":"GoFish_office_1","local":null,"category_code":"games_video","position":{"type":"Point","coordinates":[-95.712891,37.09024]},"city":null,"founded_year":2003,"number_of_employees":null,"total_money_raised":24000000.0,"latitude":37.09024,"longitude":-95.712891,"value":7}
{"name":"Kiva_office_1","local":null,"category_code":"finance","position":{"type":"Point","coordinates":[-122.4147,37.762125]},"city":"San Francisco","founded_year":2005,"number_of_employees":null,"total_money_raised":9000000.0,"latitude":37.762125,"longitude":-122.4147,"value":7}
{"name":"KIT digital_office_1","local":"KIT digital_office_1New York Office","category_code":"enterprise","position":{"type":"Point","coordinates":[-73.971655,40.751816]},"city":"New York","founded_year":2008,"number_of_employees":200.0,"total_money_raised":20000000.0,"latitude":40.751816,"longitude":-73.971655,"value":4}
{"name":"KIT digital_office_5","local":"KIT digital_office_5Stockholm Office","category_code":"enterprise","position":{"type":"Point","coordinates":[18.0580765,59.3369746]},"city":"Stockholm","founded_year":2008,"number_of_employees":200.0,"total_money_raised":20000000.0,"latitude":59.3369746,"longitude":18.0580765,"value":4}
{"name":"KIT digital_office_9","local":"KIT digital_office_9Toronto Office","category_code":"enterprise","position":{"type":"Point","coordinates":[-79.5983626,43.6587599]},"city":"Mississauga, Ontario","founded_year":2008,"number_of_employees":200.0,"total_money_raised":20000000.0,"latitude":43.6587599,"longitude":-79.5983626,"value":4}
{"name":"Zopa_office_1","local":"Zopa_office_1","category_code":"finance","position":{"type":"Point","coordinates":[-0.139947,51.517904]},"city":"London","founded_year":2005,"number_of_employees":null,"total_money_raised":33900000.0,"latitude":51.517904,"longitude":-0.139947,"value":7}
{"name":"Zivity_office_1","local":"Zivity_office_1","category_code":"network_hosting","position":{"type":"Point","coordinates":[-122.397593,37.789488]},"city":"San Francisco","founded_year":2007,"number_of_employees":16.0,"total_money_raised":8000000.0,"latitude":37.789488,"longitude":-122.397593,"value":7}
{"name":"BlueLithium_office_1","local":"BlueLithium_office_1","category_code":"advertising","position":{"type":"Point","coordinates":[-121.948399,37.32052]},"city":"San Jose","founded_year":2004,"number_of_employees":135.0,"total_money_raised":11500000.0,"latitude":37.32052,"longitude":-121.948399,"value":9}
{"name":"Goowy_office_1","local":null,"category_code":"web","position":{"type":"Point","coordinates":[-117.163353,32.71537]},"city":"San Diego","founded_year":2004,"number_of_employees":null,"total_money_raised":0.0,"latitude":32.71537,"longitude":-117.163353,"value":3}
{"name":"InviteShare_office_1","local":null,"category_code":"public_relations","position":{"type":"Point","coordinates":[-122.205016,37.450128]},"city":"Atherton","founded_year":2007,"number_of_employees":null,"total_money_raised":0.0,"latitude":37.450128,"longitude":-122.205016,"value":7}
{"name":"A9_office_1","local":null,"category_code":"web","position":{"type":"Point","coordinates":[-122.164511,37.444554]},"city":"Palo Alto","founded_year":2003,"number_of_employees":null,"total_money_raised":0.0,"latitude":37.444554,"longitude":-122.164511,"value":3}
{"name":"Doostang_office_1","local":"Doostang_office_1","category_code":"web","position":{"type":"Point","coordinates":[-122.145783,37.427235]},"city":"Palo Alto","founded_year":2005,"number_of_employees":10.0,"total_money_raised":5750000.0,"latitude":37.427235,"longitude":-122.145783,"value":3}
{"name":"Docstoc_office_1","local":"Docstoc_office_1","category_code":"web","position":{"type":"Point","coordinates":[-118.495025,34.018275]},"city":"Santa Monica","founded_year":2007,"number_of_employees":40.0,"total_money_raised":4000000.0,"latitude":34.018275,"longitude":-118.495025,"value":3}
{"name":"Vlingo_office_1","local":null,"category_code":"mobile","position":{"type":"Point","coordinates":[-71.118999,42.372912]},"city":"Cambridge","founded_year":2006,"number_of_employees":null,"total_money_raised":26500000.0,"latitude":42.372912,"longitude":-71.118999,"value":6}
{"name":"Covestor_office_2","local":"Covestor_office_2London","category_code":"finance","position":{"type":"Point","coordinates":[-0.1433689,51.5194201]},"city":"London","founded_year":2005,"number_of_employees":null,"total_money_raised":23900000.0,"latitude":51.5194201,"longitude":-0.1433689,"value":7}
{"name":"Shock Treatment Management_office_1","local":null,"category_code":"web","position":{"type":"Point","coordinates":[-122.339859,47.610332]},"city":"Seattle","founded_year":2004,"number_of_employees":null,"total_money_raised":4000000.0,"latitude":47.610332,"longitude":-122.339859,"value":3}
{"name":"Mevio_office_1","local":"Mevio_office_1","category_code":"games_video","position":{"type":"Point","coordinates":[-122.392142,37.782263]},"city":"San Francisco","founded_year":2004,"number_of_employees":null,"total_money_raised":48900000.0,"latitude":37.782263,"longitude":-122.392142,"value":7}
{"name":"TechCrunch_office_1","local":"TechCrunch_office_1","category_code":"news","position":{"type":"Point","coordinates":[-122.1490582,37.4459832]},"city":"San Francisco","founded_year":2005,"number_of_employees":null,"total_money_raised":0.0,"latitude":37.4459832,"longitude":-122.1490582,"value":7}
{"name":"Pluck_office_1","local":null,"category_code":"web","position":{"type":"Point","coordinates":[-97.745209,30.268735]},"city":"Austin","founded_year":2003,"number_of_employees":null,"total_money_raised":17000000.0,"latitude":30.268735,"longitude":-97.745209,"value":3}
{"name":"NewsGator_office_1","local":"NewsGator_office_1NewsGator US Headquarters","category_code":"enterprise","position":{"type":"Point","coordinates":[-104.988123,39.755092]},"city":"Denver","founded_year":2004,"number_of_employees":90.0,"total_money_raised":39300000.0,"latitude":39.755092,"longitude":-104.988123,"value":1}
{"name":"MySpace_office_1","local":"MySpace_office_1","category_code":"network_hosting","position":{"type":"Point","coordinates":[-118.372953,34.076061]},"city":"Beverly Hills","founded_year":2003,"number_of_employees":800.0,"total_money_raised":0.0,"latitude":34.076061,"longitude":-118.372953,"value":16}
{"name":"sezmi_office_1","local":"sezmi_office_1","category_code":"games_video","position":{"type":"Point","coordinates":[-122.265869,37.524422]},"city":"Belmont","founded_year":2007,"number_of_employees":null,"total_money_raised":78600000.0,"latitude":37.524422,"longitude":-122.265869,"value":7}
{"name":"sezmi_office_2","local":"sezmi_office_2","category_code":"games_video","position":{"type":"Point","coordinates":[-118.453218,34.017373]},"city":"Santa Monica","founded_year":2007,"number_of_employees":null,"total_money_raised":78600000.0,"latitude":34.017373,"longitude":-118.453218,"value":7}
{"name":"sezmi_office_3","local":"sezmi_office_3","category_code":"games_video","position":{"type":"Point","coordinates":[-80.157296,26.207024]},"city":"Fort Lauderdale","founded_year":2007,"number_of_employees":null,"total_money_raised":78600000.0,"latitude":26.207024,"longitude":-80.157296,"value":7}
{"name":"Greystripe_office_1","local":"Greystripe_office_1Greystripe","category_code":"advertising","position":{"type":"Point","coordinates":[-122.39323,37.710677]},"city":"San Francisco","founded_year":2005,"number_of_employees":90.0,"total_money_raised":17600000.0,"latitude":37.710677,"longitude":-122.39323,"value":6}
{"name":"DAVE Networks_office_1","local":"DAVE Networks_office_1Corporate Headquarters","category_code":"web","position":{"type":"Point","coordinates":[-118.423423,33.979033]},"city":"Los Angeles","founded_year":2003,"number_of_employees":null,"total_money_raised":0.0,"latitude":33.979033,"longitude":-118.423423,"value":3}
{"name":"DAVE Networks_office_2","local":"DAVE Networks_office_2Mailing Address","category_code":"web","position":{"type":"Point","coordinates":[-118.439787,33.979506]},"city":"Marina Del Rey","founded_year":2003,"number_of_employees":null,"total_money_raised":0.0,"latitude":33.979506,"longitude":-118.439787,"value":3}
{"name":"ReachLocal_office_1","local":"ReachLocal_office_1Europe Headquarters","category_code":"advertising","position":{"type":"Point","coordinates":[-72.188584,41.53155]},"city":"London","founded_year":2004,"number_of_employees":1700.0,"total_money_raised":68100000.0,"latitude":41.53155,"longitude":-72.188584,"value":13}
{"name":"ReachLocal_office_2","local":"ReachLocal_office_2Canada Headquarters","category_code":"advertising","position":{"type":"Point","coordinates":[-79.338246,43.7192415]},"city":"Toronto","founded_year":2004,"number_of_employees":1700.0,"total_money_raised":68100000.0,"latitude":43.7192415,"longitude":-79.338246,"value":13}
{"name":"Trulia_office_1","local":"Trulia_office_1World HQ","category_code":"search","position":{"type":"Point","coordinates":[-122.406676,37.766909]},"city":"San Francisco","founded_year":2004,"number_of_employees":500.0,"total_money_raised":255000000.0,"latitude":37.766909,"longitude":-122.406676,"value":14}
{"name":"TubeMogul_office_1","local":"TubeMogul_office_1Company Headquarters","category_code":"advertising","position":{"type":"Point","coordinates":[-122.286493,37.836957]},"city":"Emeryville","founded_year":2006,"number_of_employees":230.0,"total_money_raised":53200000.0,"latitude":37.836957,"longitude":-122.286493,"value":9}
{"name":"LimeLife_office_1","local":null,"category_code":"news","position":{"type":"Point","coordinates":[-122.169472,37.48413]},"city":"Menlo Park","founded_year":2004,"number_of_employees":null,"total_money_raised":20900000.0,"latitude":37.48413,"longitude":-122.169472,"value":7}
{"name":"Seedcamp_office_1","local":"Seedcamp_office_1","category_code":"finance","position":{"type":"Point","coordinates":[-0.1418973,51.5108803]},"city":"London","founded_year":2007,"number_of_employees":4.0,"total_money_raised":5000000.0,"latitude":51.5108803,"longitude":-0.1418973,"value":7}
{"name":"MocoSpace_office_1","local":"MocoSpace_office_1","category_code":"games_video","position":{"type":"Point","coordinates":[-71.058768,42.350274]},"city":"Boston","founded_year":2005,"number_of_employees":25.0,"total_money_raised":10500000.0,"latitude":42.350274,"longitude":-71.058768,"value":7}
{"name":"YouBeQB_office_1","local":null,"category_code":"games_video","position":{"type":"Point","coordinates":[-122.151158,47.597965]},"city":"Bellevue","founded_year":2008,"number_of_employees":8.0,"total_money_raised":0.0,"latitude":47.597965,"longitude":-122.151158,"value":7}
{"name":"LocaModa_office_1","local":"LocaModa_office_1HQ","category_code":"advertising","position":{"type":"Point","coordinates":[-71.104329,42.358822]},"city":"Cambridge","founded_year":2007,"number_of_employees":0.0,"total_money_raised":7900000.0,"latitude":42.358822,"longitude":-71.104329,"value":4}
{"name":"Adknowledge_office_1","local":"Adknowledge_office_1World Headquarters","category_code":"advertising","position":{"type":"Point","coordinates":[-94.597896,39.044694]},"city":"Kansas City","founded_year":2004,"number_of_employees":300.0,"total_money_raised":248000000.0,"latitude":39.044694,"longitude":-94.597896,"value":9}
{"name":"Adknowledge_office_2","local":"Adknowledge_office_2Adknowledge New York","category_code":"advertising","position":{"type":"Point","coordinates":[-73.992463,40.748901]},"city":"New York","founded_year":2004,"number_of_employees":300.0,"total_money_raised":248000000.0,"latitude":40.748901,"longitude":-73.992463,"value":9}
{"name":"Adknowledge_office_3","local":"Adknowledge_office_3Adknowledge San Francisco","category_code":"advertising","position":{"type":"Point","coordinates":[-122.401406,37.78866]},"city":"San Francisco","founded_year":2004,"number_of_employees":300.0,"total_money_raised":248000000.0,"latitude":37.78866,"longitude":-122.401406,"value":9}
{"name":"Adknowledge_office_4","local":"Adknowledge_office_4Adknowledge Fort Myers","category_code":"advertising","position":{"type":"Point","coordinates":[-81.879069,26.580095]},"city":"Fort Myers","founded_year":2004,"number_of_employees":300.0,"total_money_raised":248000000.0,"latitude":26.580095,"longitude":-81.879069,"value":9}
{"name":"Adknowledge_office_5","local":"Adknowledge_office_5Adknowledge Toronto","category_code":"advertising","position":{"type":"Point","coordinates":[-79.3953743,43.6474554]},"city":"Toronto","founded_year":2004,"number_of_employees":300.0,"total_money_raised":248000000.0,"latitude":43.6474554,"longitude":-79.3953743,"value":9}
{"name":"Adknowledge_office_6","local":"Adknowledge_office_6Adknowledge UK","category_code":"advertising","position":{"type":"Point","coordinates":[-0.1229212,51.5114403]},"city":"Covent Garden, London","founded_year":2004,"number_of_employees":300.0,"total_money_raised":248000000.0,"latitude":51.5114403,"longitude":-0.1229212,"value":9}
{"name":"Adknowledge_office_7","local":"Adknowledge_office_7Adknowledge Germany","category_code":"advertising","position":{"type":"Point","coordinates":[11.5582609,48.1635092]},"city":"Munich","founded_year":2004,"number_of_employees":300.0,"total_money_raised":248000000.0,"latitude":48.1635092,"longitude":11.5582609,"value":9}
{"name":"Adknowledge_office_8","local":"Adknowledge_office_8Adknowledge France","category_code":"advertising","position":{"type":"Point","coordinates":[2.3797825,48.8506065]},"city":"Paris","founded_year":2004,"number_of_employees":300.0,"total_money_raised":248000000.0,"latitude":48.8506065,"longitude":2.3797825,"value":9}
{"name":"Adknowledge_office_9","local":"Adknowledge_office_9Adknowledge China","category_code":"advertising","position":{"type":"Point","coordinates":[121.4770384,31.222622]},"city":"Shanghai","founded_year":2004,"number_of_employees":300.0,"total_money_raised":248000000.0,"latitude":31.222622,"longitude":121.4770384,"value":9}
{"name":"Yap_office_1","local":"Yap_office_1","category_code":"messaging","position":{"type":"Point","coordinates":[-80.856178,35.22806]},"city":"Fort Mill","founded_year":2006,"number_of_employees":null,"total_money_raised":12000000.0,"latitude":35.22806,"longitude":-80.856178,"value":-6}
{"name":"Minglebox_office_1","local":null,"category_code":"web","position":{"type":"Point","coordinates":[77.594376,12.971606]},"city":"Bangalore","founded_year":2006,"number_of_employees":null,"total_money_raised":7000000.0,"latitude":12.971606,"longitude":77.594376,"value":3}
{"name":"Tizra_office_1","local":null,"category_code":"enterprise","position":{"type":"Point","coordinates":[-71.399771,41.841713]},"city":"Providence","founded_year":2006,"number_of_employees":null,"total_money_raised":850000.0,"latitude":41.841713,"longitude":-71.399771,"value":-1}
{"name":"TestFreaks_office_1","local":"TestFreaks_office_1Main office","category_code":"ecommerce","position":{"type":"Point","coordinates":[18.0571198,59.3339908]},"city":"Stockholm","founded_year":2006,"number_of_employees":null,"total_money_raised":5800000.0,"latitude":59.3339908,"longitude":18.0571198,"value":1}
{"name":"BlogSigs_office_1","local":null,"category_code":"web","position":{"type":"Point","coordinates":[-95.712891,37.09024]},"city":null,"founded_year":2007,"number_of_employees":null,"total_money_raised":0.0,"latitude":37.09024,"longitude":-95.712891,"value":3}
{"name":"Quattro Wireless_office_1","local":null,"category_code":"advertising","position":{"type":"Point","coordinates":[-71.248472,42.3729]},"city":"Waltham","founded_year":2006,"number_of_employees":null,"total_money_raised":28300000.0,"latitude":42.3729,"longitude":-71.248472,"value":4}
{"name":"BBE_office_1","local":"BBE_office_1","category_code":"advertising","position":{"type":"Point","coordinates":[-73.9874008,40.7445343]},"city":"New York","founded_year":2004,"number_of_employees":null,"total_money_raised":10000000.0,"latitude":40.7445343,"longitude":-73.9874008,"value":4}
{"name":"Thumbplay_office_1","local":null,"category_code":"music","position":{"type":"Point","coordinates":[-73.997395,40.725435]},"city":"New York","founded_year":2004,"number_of_employees":70.0,"total_money_raised":41500000.0,"latitude":40.725435,"longitude":-73.997395,"value":9}
{"name":"SnapTell_office_1","local":"SnapTell_office_1","category_code":"software","position":{"type":"Point","coordinates":[-122.128772,37.433414]},"city":"Palo Alto","founded_year":2006,"number_of_employees":null,"total_money_raised":4000000.0,"latitude":37.433414,"longitude":-122.128772,"value":7}
{"name":"Wonga_office_1","local":"Wonga_office_1","category_code":"web","position":{"type":"Point","coordinates":[-0.1626103,51.5192042]},"city":"London","founded_year":2007,"number_of_employees":null,"total_money_raised":101000000.0,"latitude":51.5192042,"longitude":-0.1626103,"value":3}
{"name":"MicroPlace_office_1","local":"MicroPlace_office_1","category_code":"web","position":{"type":"Point","coordinates":[-122.419204,37.775196]},"city":"San Francisco","founded_year":2007,"number_of_employees":15.0,"total_money_raised":0.0,"latitude":37.775196,"longitude":-122.419204,"value":3}
{"name":"EyeJot_office_1","local":"EyeJot_office_1","category_code":"web","position":{"type":"Point","coordinates":[-122.3276962,47.5999337]},"city":"Seattle","founded_year":2007,"number_of_employees":5.0,"total_money_raised":1150000.0,"latitude":47.5999337,"longitude":-122.3276962,"value":3}
{"name":"Contrastream_office_1","local":null,"category_code":"games_video","position":{"type":"Point","coordinates":[-79.348037,43.799511]},"city":"Toronto","founded_year":2007,"number_of_employees":1.0,"total_money_raised":0.0,"latitude":43.799511,"longitude":-79.348037,"value":7}
{"name":"Spiceworks_office_1","local":"Spiceworks_office_1World Headquarters","category_code":"hardware","position":{"type":"Point","coordinates":[-97.753739,30.386601]},"city":"Austin","founded_year":2006,"number_of_employees":null,"total_money_raised":54000000.0,"latitude":30.386601,"longitude":-97.753739,"value":7}
{"name":"MyHeritage_office_1","local":"MyHeritage_office_1","category_code":"social","position":{"type":"Point","coordinates":[34.856173,32.029748]},"city":"Or Yehuda","founded_year":2005,"number_of_employees":null,"total_money_raised":49000000.0,"latitude":32.029748,"longitude":34.856173,"value":0}
{"name":"OnForce_office_1","local":"OnForce_office_1","category_code":"enterprise","position":{"type":"Point","coordinates":[-71.262508,42.47218]},"city":"Lexington","founded_year":2003,"number_of_employees":null,"total_money_raised":26800000.0,"latitude":42.47218,"longitude":-71.262508,"value":-1}
{"name":"OMGPOP_office_1","local":"OMGPOP_office_1","category_code":"games_video","position":{"type":"Point","coordinates":[-74.001704,40.723384]},"city":"New York","founded_year":2006,"number_of_employees":50.0,"total_money_raised":16600000.0000000019,"latitude":40.723384,"longitude":-74.001704,"value":9}
{"name":"Daylife_office_1","local":null,"category_code":"enterprise","position":{"type":"Point","coordinates":[-73.886452,40.643438]},"city":"New York","founded_year":2006,"number_of_employees":25.0,"total_money_raised":12300000.0,"latitude":40.643438,"longitude":-73.886452,"value":-1}
{"name":"SayNow_office_1","local":"SayNow_office_1Headquarters","category_code":"mobile","position":{"type":"Point","coordinates":[-122.143915,37.42746]},"city":"Palo Alto","founded_year":2005,"number_of_employees":20.0,"total_money_raised":7500000.0,"latitude":37.42746,"longitude":-122.143915,"value":6}
{"name":"Crunchyroll_office_1","local":"Crunchyroll_office_1","category_code":"games_video","position":{"type":"Point","coordinates":[-122.393229,37.781265]},"city":"San Francisco","founded_year":2008,"number_of_employees":50.0,"total_money_raised":4800000.0,"latitude":37.781265,"longitude":-122.393229,"value":9}
{"name":"Ooyala_office_1","local":"Ooyala_office_1Corporate Headquarters","category_code":"analytics","position":{"type":"Point","coordinates":[-122.084171,37.386665]},"city":"Mountain View","founded_year":2007,"number_of_employees":300.0,"total_money_raised":122000000.0,"latitude":37.386665,"longitude":-122.084171,"value":12}
{"name":"PixSense_office_1","local":"PixSense_office_1Headquarters","category_code":"mobile","position":{"type":"Point","coordinates":[-121.973228,37.387114]},"city":"Santa Clara","founded_year":2003,"number_of_employees":35.0,"total_money_raised":7400000.0,"latitude":37.387114,"longitude":-121.973228,"value":6}
{"name":"Behance_office_1","local":"Behance_office_1","category_code":"web","position":{"type":"Point","coordinates":[-74.004592,40.74406]},"city":"New York","founded_year":2006,"number_of_employees":30.0,"total_money_raised":6500000.0,"latitude":40.74406,"longitude":-74.004592,"value":3}
{"name":"Yugma_office_1","local":"Yugma_office_1YSL Holdings (HQ)","category_code":"games_video","position":{"type":"Point","coordinates":[-93.4094629,44.865243]},"city":"Eden Prairie","founded_year":2003,"number_of_employees":38.0,"total_money_raised":0.0,"latitude":44.865243,"longitude":-93.4094629,"value":7}
{"name":"ThemBid_office_1","local":null,"category_code":"ecommerce","position":{"type":"Point","coordinates":[-117.572967,34.099253]},"city":"Rancho Cucamonga","founded_year":2007,"number_of_employees":7.0,"total_money_raised":0.0,"latitude":34.099253,"longitude":-117.572967,"value":1}
{"name":"imeem_office_1","local":"imeem_office_1","category_code":"music","position":{"type":"Point","coordinates":[-122.391236,37.779624]},"city":"San Francisco","founded_year":2003,"number_of_employees":55.0,"total_money_raised":24800000.0,"latitude":37.779624,"longitude":-122.391236,"value":9}
{"name":"FAROO_office_1","local":"FAROO_office_1","category_code":"search","position":{"type":"Point","coordinates":[-0.1065551,51.5195795]},"city":"London","founded_year":2007,"number_of_employees":5.0,"total_money_raised":0.0,"latitude":51.5195795,"longitude":-0.1065551,"value":7}
{"name":"hulu_office_1","local":null,"category_code":"games_video","position":{"type":"Point","coordinates":[-118.456806,34.031276]},"city":"Los Angeles","founded_year":2007,"number_of_employees":153.0,"total_money_raised":100000000.0,"latitude":34.031276,"longitude":-118.456806,"value":12}
{"name":"AdMob_office_1","local":"AdMob_office_1Google, Inc","category_code":"advertising","position":{"type":"Point","coordinates":[-122.324621,37.563585]},"city":"Mountain View","founded_year":2006,"number_of_employees":null,"total_money_raised":46800000.0,"latitude":37.563585,"longitude":-122.324621,"value":4}
{"name":"OrganizedWisdom_office_1","local":null,"category_code":"other","position":{"type":"Point","coordinates":[-73.981709,40.775537]},"city":"New York","founded_year":2007,"number_of_employees":18.0,"total_money_raised":2800000.0,"latitude":40.775537,"longitude":-73.981709,"value":-4}
{"name":"LineUpNewYork_office_1","local":null,"category_code":"web","position":{"type":"Point","coordinates":[-73.986771,40.753202]},"city":"New York","founded_year":2007,"number_of_employees":0.0,"total_money_raised":0.0,"latitude":40.753202,"longitude":-73.986771,"value":3}
{"name":"MediaPops_office_1","local":null,"category_code":"games_video","position":{"type":"Point","coordinates":[-122.333523,47.611012]},"city":"Seattle","founded_year":2007,"number_of_employees":0.0,"total_money_raised":0.0,"latitude":47.611012,"longitude":-122.333523,"value":7}
{"name":"Attributor_office_1","local":"Attributor_office_1","category_code":"software","position":{"type":"Point","coordinates":[-122.228595,37.453687]},"city":"San Mateo","founded_year":2005,"number_of_employees":0.0,"total_money_raised":25200000.0,"latitude":37.453687,"longitude":-122.228595,"value":7}
{"name":"BeFunky_office_2","local":null,"category_code":"photo_video","position":{"type":"Point","coordinates":[-122.4194155,37.7749295]},"city":"San Francisco","founded_year":2007,"number_of_employees":6.0,"total_money_raised":1650000.0,"latitude":37.7749295,"longitude":-122.4194155,"value":7}
{"name":"PeekYou_office_1","local":null,"category_code":"search","position":{"type":"Point","coordinates":[-73.985506,40.757929]},"city":"New York","founded_year":2012,"number_of_employees":20.0,"total_money_raised":1830000.0,"latitude":40.757929,"longitude":-73.985506,"value":7}
{"name":"Mozy_office_1","local":"Mozy_office_1Mozy, Inc.","category_code":"public_relations","position":{"type":"Point","coordinates":[-111.777531,40.357978]},"city":"Pleasant Grove","founded_year":2005,"number_of_employees":26.0,"total_money_raised":1900000.0,"latitude":40.357978,"longitude":-111.777531,"value":7}
{"name":"Mixx_office_1","local":"Mixx_office_1","category_code":"web","position":{"type":"Point","coordinates":[-79.420926,38.003376]},"city":"McLean","founded_year":2007,"number_of_employees":11.0,"total_money_raised":3500000.0,"latitude":38.003376,"longitude":-79.420926,"value":3}
{"name":"TripIt_office_1","local":"TripIt_office_1","category_code":"travel","position":{"type":"Point","coordinates":[-122.402021,37.764169]},"city":"San Francisco","founded_year":2006,"number_of_employees":63.0,"total_money_raised":13100000.0,"latitude":37.764169,"longitude":-122.402021,"value":9}
{"name":"Kerpoof_office_1","local":"Kerpoof_office_1","category_code":"web","position":{"type":"Point","coordinates":[-105.38018,40.048078]},"city":"Boulder","founded_year":2006,"number_of_employees":0.0,"total_money_raised":0.0,"latitude":40.048078,"longitude":-105.38018,"value":3}
{"name":"GENWI_office_1","local":"GENWI_office_1","category_code":"mobile","position":{"type":"Point","coordinates":[-111.9035,33.8171]},"city":"Los Altos","founded_year":2010,"number_of_employees":25.0,"total_money_raised":7100000.0,"latitude":33.8171,"longitude":-111.9035,"value":6}
{"name":"app2you_office_1","local":null,"category_code":"web","position":{"type":"Point","coordinates":[-117.274609,32.847521]},"city":"La Jolla","founded_year":2006,"number_of_employees":4.0,"total_money_raised":169000.0,"latitude":32.847521,"longitude":-117.274609,"value":3}
{"name":"HylioSoft_office_1","local":null,"category_code":"web","position":{"type":"Point","coordinates":[6.182658,49.1004]},"city":"METZ","founded_year":2004,"number_of_employees":3.0,"total_money_raised":50000.0,"latitude":49.1004,"longitude":6.182658,"value":3}
{"name":"YourStreet_office_1","local":null,"category_code":"web","position":{"type":"Point","coordinates":[-122.421341,37.793742]},"city":"San Francisco","founded_year":2006,"number_of_employees":6.0,"total_money_raised":250000.0,"latitude":37.793742,"longitude":-122.421341,"value":3}
{"name":"PubMatic_office_1","local":"PubMatic_office_1HQ","category_code":"advertising","position":{"type":"Point","coordinates":[-122.156579,37.446668]},"city":"Redwood City","founded_year":2006,"number_of_employees":380.0,"total_money_raised":63000000.0,"latitude":37.446668,"longitude":-122.156579,"value":9}
{"name":"Vidoop_office_1","local":"Vidoop_office_1Main Office","category_code":"software","position":{"type":"Point","coordinates":[-122.675448,45.5241278]},"city":"Portland","founded_year":2006,"number_of_employees":30.0,"total_money_raised":0.0,"latitude":45.5241278,"longitude":-122.675448,"value":7}
{"name":"Zerofootprint_office_1","local":"Zerofootprint_office_1Zerofootprint Canada","category_code":"software","position":{"type":"Point","coordinates":[-79.396805,43.6501051]},"city":"Toronto","founded_year":2005,"number_of_employees":null,"total_money_raised":0.0,"latitude":43.6501051,"longitude":-79.396805,"value":7}
{"name":"GlobalMotion_office_1","local":null,"category_code":"travel","position":{"type":"Point","coordinates":[-122.161247,37.445714]},"city":"Palo Alto","founded_year":2006,"number_of_employees":0.0,"total_money_raised":1000000.0,"latitude":37.445714,"longitude":-122.161247,"value":7}
{"name":"Snoozester_office_1","local":null,"category_code":"mobile","position":{"type":"Point","coordinates":[-77.123153,39.052614]},"city":"Rockville","founded_year":2005,"number_of_employees":0.0,"total_money_raised":0.0,"latitude":39.052614,"longitude":-77.123153,"value":6}
{"name":"SmartHippo_office_1","local":null,"category_code":"ecommerce","position":{"type":"Point","coordinates":[-73.566634,45.506643]},"city":"Montreal","founded_year":2005,"number_of_employees":10.0,"total_money_raised":0.0,"latitude":45.506643,"longitude":-73.566634,"value":1}
{"name":"FlowPlay_office_1","local":"FlowPlay_office_1","category_code":"games_video","position":{"type":"Point","coordinates":[-122.335943,47.6015315]},"city":"Seattle","founded_year":2006,"number_of_employees":30.0,"total_money_raised":3970000.0,"latitude":47.6015315,"longitude":-122.335943,"value":7}
{"name":"headr_office_1","local":"headr_office_1","category_code":"web","position":{"type":"Point","coordinates":[13.4109071,52.5013449]},"city":"Berlin","founded_year":2012,"number_of_employees":8.0,"total_money_raised":0.0,"latitude":52.5013449,"longitude":13.4109071,"value":3}
{"name":"IMSafer_office_1","local":null,"category_code":"web","position":{"type":"Point","coordinates":[-95.536,30.182107]},"city":"The Woodlands","founded_year":2006,"number_of_employees":5.0,"total_money_raised":0.0,"latitude":30.182107,"longitude":-95.536,"value":3}
{"name":"Feedjit_office_1","local":"Feedjit_office_1","category_code":"web","position":{"type":"Point","coordinates":[-122.084356,47.585114]},"city":"Sammamish","founded_year":2007,"number_of_employees":2.0,"total_money_raised":450000.0,"latitude":47.585114,"longitude":-122.084356,"value":3}
{"name":"Trivop_office_1","local":"Trivop_office_1","category_code":"web","position":{"type":"Point","coordinates":[2.3365754,48.8558532]},"city":"Paris","founded_year":2007,"number_of_employees":null,"total_money_raised":0.0,"latitude":48.8558532,"longitude":2.3365754,"value":3}
{"name":"Balihoo_office_1","local":"Balihoo_office_1","category_code":"advertising","position":{"type":"Point","coordinates":[-116.205637,43.61295]},"city":"Boise","founded_year":2004,"number_of_employees":null,"total_money_raised":24500000.0,"latitude":43.61295,"longitude":-116.205637,"value":4}
{"name":"Viewpoints_office_1","local":"Viewpoints_office_1","category_code":"web","position":{"type":"Point","coordinates":[-87.63406,41.890376]},"city":"Chicago","founded_year":2006,"number_of_employees":15.0,"total_money_raised":5000000.0,"latitude":41.890376,"longitude":-87.63406,"value":3}
{"name":"Smartsheet_office_1","local":"Smartsheet_office_1","category_code":"enterprise","position":{"type":"Point","coordinates":[-122.20052,47.617842]},"city":"Bellevue","founded_year":2005,"number_of_employees":null,"total_money_raised":32400000.0,"latitude":47.617842,"longitude":-122.20052,"value":-1}
{"name":"Avvo_office_1","local":"Avvo_office_1Headquarters","category_code":"legal","position":{"type":"Point","coordinates":[-122.3396627,47.6104101]},"city":"Seattle","founded_year":2007,"number_of_employees":null,"total_money_raised":23000000.0,"latitude":47.6104101,"longitude":-122.3396627,"value":2}
{"name":"Tumri_office_1","local":null,"category_code":"advertising","position":{"type":"Point","coordinates":[-95.712891,37.09024]},"city":null,"founded_year":2004,"number_of_employees":null,"total_money_raised":31000000.0,"latitude":37.09024,"longitude":-95.712891,"value":4}
{"name":"ThisNext_office_1","local":null,"category_code":"social","position":{"type":"Point","coordinates":[-118.493592,34.01533]},"city":"Santa Monica","founded_year":2005,"number_of_employees":0.0,"total_money_raised":8700000.0,"latitude":34.01533,"longitude":-118.493592,"value":0}
{"name":"OneRiot_office_1","local":"OneRiot_office_1Headquarters","category_code":"advertising","position":{"type":"Point","coordinates":[-105.28131,40.01621]},"city":"Boulder","founded_year":2006,"number_of_employees":32.0,"total_money_raised":27300000.0,"latitude":40.01621,"longitude":-105.28131,"value":4}
{"name":"ChessPark_office_1","local":null,"category_code":"games_video","position":{"type":"Point","coordinates":[-83.913153,43.67084]},"city":"West Palm Beach","founded_year":2007,"number_of_employees":null,"total_money_raised":1000000.0,"latitude":43.67084,"longitude":-83.913153,"value":7}
{"name":"UpDown_office_1","local":null,"category_code":"web","position":{"type":"Point","coordinates":[-71.118487,42.375392]},"city":"Cambridge","founded_year":2007,"number_of_employees":5.0,"total_money_raised":1750000.0,"latitude":42.375392,"longitude":-71.118487,"value":3}
{"name":"Clickable_office_1","local":"Clickable_office_1New York Office","category_code":"advertising","position":{"type":"Point","coordinates":[-73.9912208,40.7413559]},"city":"New York","founded_year":2006,"number_of_employees":160.0,"total_money_raised":32500000.0,"latitude":40.7413559,"longitude":-73.9912208,"value":9}
{"name":"Webjam_office_1","local":"Webjam_office_1Webjam Mark2 Ltd","category_code":"enterprise","position":{"type":"Point","coordinates":[-0.136174,51.519819]},"city":"London","founded_year":2006,"number_of_employees":18.0,"total_money_raised":2000000.0,"latitude":51.519819,"longitude":-0.136174,"value":-1}
{"name":"mig33_office_1","local":"mig33_office_1mig33 Headquarters","category_code":"games_video","position":{"type":"Point","coordinates":[-122.343679,37.580304]},"city":"Singapore","founded_year":2005,"number_of_employees":100.0,"total_money_raised":32400000.0,"latitude":37.580304,"longitude":-122.343679,"value":12}
{"name":"Swamble_office_1","local":null,"category_code":"web","position":{"type":"Point","coordinates":[-115.089514,36.076705]},"city":null,"founded_year":2007,"number_of_employees":0.0,"total_money_raised":0.0,"latitude":36.076705,"longitude":-115.089514,"value":3}
{"name":"Animoto_office_1","local":"Animoto_office_1Headquarters","category_code":"music","position":{"type":"Point","coordinates":[-74.000195,40.72948]},"city":"New York","founded_year":2006,"number_of_employees":60.0,"total_money_raised":30000000.0,"latitude":40.72948,"longitude":-74.000195,"value":9}
{"name":"Data360_office_1","local":null,"category_code":"web","position":{"type":"Point","coordinates":[-122.306571,37.799549]},"city":"San Francisco","founded_year":2006,"number_of_employees":0.0,"total_money_raised":0.0,"latitude":37.799549,"longitude":-122.306571,"value":3}
{"name":"GamerDNA_office_1","local":null,"category_code":"web","position":{"type":"Point","coordinates":[-71.118487,42.375392]},"city":"Cambridge","founded_year":2006,"number_of_employees":13.0,"total_money_raised":3000000.0,"latitude":42.375392,"longitude":-71.118487,"value":3}
{"name":"Houseglue_office_1","local":null,"category_code":"web","position":{"type":"Point","coordinates":[-121.983814,37.222604]},"city":"Los Gatos","founded_year":2007,"number_of_employees":5.0,"total_money_raised":0.0,"latitude":37.222604,"longitude":-121.983814,"value":3}
{"name":"SpeedDate_office_1","local":"SpeedDate_office_1","category_code":"web","position":{"type":"Point","coordinates":[-122.285714,37.557637]},"city":"San Mateo","founded_year":2007,"number_of_employees":0.0,"total_money_raised":11600000.0,"latitude":37.557637,"longitude":-122.285714,"value":3}
{"name":"Pakt_office_1","local":null,"category_code":"web","position":{"type":"Point","coordinates":[-118.441219,33.945553]},"city":null,"founded_year":2006,"number_of_employees":0.0,"total_money_raised":0.0,"latitude":33.945553,"longitude":-118.441219,"value":3}
{"name":"Realius_office_1","local":null,"category_code":"games_video","position":{"type":"Point","coordinates":[-122.26999,37.887864]},"city":"Berkeley","founded_year":2006,"number_of_employees":3.0,"total_money_raised":500000.0,"latitude":37.887864,"longitude":-122.26999,"value":7}
{"name":"Metaplace_office_1","local":"Metaplace_office_1hi","category_code":"games_video","position":{"type":"Point","coordinates":[-117.077311,33.020832]},"city":"Solana Beach","founded_year":2006,"number_of_employees":12.0,"total_money_raised":9400000.0,"latitude":33.020832,"longitude":-117.077311,"value":7}
{"name":"Wirenode_office_1","local":null,"category_code":"mobile","position":{"type":"Point","coordinates":[14.489674,50.055049]},"city":"Prague 10","founded_year":2005,"number_of_employees":0.0,"total_money_raised":0.0,"latitude":50.055049,"longitude":14.489674,"value":6}
{"name":"Xobni_office_1","local":"Xobni_office_1HQ","category_code":"software","position":{"type":"Point","coordinates":[-122.404052,37.789634]},"city":"San Francisco","founded_year":2006,"number_of_employees":0.0,"total_money_raised":41800000.0,"latitude":37.789634,"longitude":-122.404052,"value":7}
{"name":"Tripwiser_office_1","local":"Tripwiser_office_1HQ","category_code":"web","position":{"type":"Point","coordinates":[-122.012475,37.384239]},"city":"Sunnyvale","founded_year":2006,"number_of_employees":0.0,"total_money_raised":0.0,"latitude":37.384239,"longitude":-122.012475,"value":3}
{"name":"Fixya_office_1","local":"Fixya_office_1","category_code":"web","position":{"type":"Point","coordinates":[-122.323895,37.566879]},"city":"San Mateo","founded_year":2013,"number_of_employees":30.0,"total_money_raised":8000000.0,"latitude":37.566879,"longitude":-122.323895,"value":3}
{"name":"Syntraxis_office_1","local":null,"category_code":"web","position":{"type":"Point","coordinates":[-96.9403,32.860831]},"city":"Irving","founded_year":2006,"number_of_employees":6.0,"total_money_raised":0.0,"latitude":32.860831,"longitude":-96.9403,"value":3}
{"name":"Styky_office_1","local":null,"category_code":"mobile","position":{"type":"Point","coordinates":[-75.194657,39.956259]},"city":"Philadelphia","founded_year":2003,"number_of_employees":3.0,"total_money_raised":100000.0,"latitude":39.956259,"longitude":-75.194657,"value":6}
{"name":"Empressr_office_1","local":null,"category_code":"public_relations","position":{"type":"Point","coordinates":[-73.993127,40.740337]},"city":"New York","founded_year":2006,"number_of_employees":35.0,"total_money_raised":0.0,"latitude":40.740337,"longitude":-73.993127,"value":7}
{"name":"Diigo_office_1","local":null,"category_code":"web","position":{"type":"Point","coordinates":[-119.81439,39.530368]},"city":"Reno","founded_year":2006,"number_of_employees":null,"total_money_raised":0.0,"latitude":39.530368,"longitude":-119.81439,"value":3}
{"name":"GroupSwim_office_1","local":null,"category_code":"software","position":{"type":"Point","coordinates":[-122.393041,37.779558]},"city":"San Francisco","founded_year":2005,"number_of_employees":9.0,"total_money_raised":0.0,"latitude":37.779558,"longitude":-122.393041,"value":7}
{"name":"EkkoTV_office_1","local":"EkkoTV_office_1Facebook.com\/Phulwariya","category_code":"games_video","position":{"type":"Point","coordinates":[-122.036849,37.369195]},"city":"Sunnyvale","founded_year":2006,"number_of_employees":0.0,"total_money_raised":0.0,"latitude":37.369195,"longitude":-122.036849,"value":7}
{"name":"Ponoko_office_1","local":"Ponoko_office_1US Office","category_code":"ecommerce","position":{"type":"Point","coordinates":[-122.2966496,37.8136086]},"city":"Oakland","founded_year":2007,"number_of_employees":9.0,"total_money_raised":0.0,"latitude":37.8136086,"longitude":-122.2966496,"value":1}
{"name":"Jiglu_office_1","local":"Jiglu_office_1","category_code":"software","position":{"type":"Point","coordinates":[-0.149522,51.54236]},"city":"London","founded_year":2003,"number_of_employees":3.0,"total_money_raised":800000.0,"latitude":51.54236,"longitude":-0.149522,"value":7}
{"name":"Type-Any-Circle-Of-Six_office_1","local":null,"category_code":"web","position":{"type":"Point","coordinates":[175.2604,-37.797384]},"city":"","founded_year":2006,"number_of_employees":0.0,"total_money_raised":0.0,"latitude":-37.797384,"longitude":175.2604,"value":3}
{"name":"SuTree_office_1","local":null,"category_code":"games_video","position":{"type":"Point","coordinates":[34.7595,32.0554]},"city":"Tel Aviv","founded_year":2006,"number_of_employees":5.0,"total_money_raised":0.0,"latitude":32.0554,"longitude":34.7595,"value":7}
{"name":"Sermo_office_1","local":null,"category_code":"health","position":{"type":"Point","coordinates":[-71.078978,42.364367]},"city":"Cambridge","founded_year":2006,"number_of_employees":null,"total_money_raised":41000000.0,"latitude":42.364367,"longitude":-71.078978,"value":7}
{"name":"itsmylife_office_1","local":null,"category_code":"web","position":{"type":"Point","coordinates":[-80.632606,28.074742]},"city":"Melbourne","founded_year":2003,"number_of_employees":2.0,"total_money_raised":0.0,"latitude":28.074742,"longitude":-80.632606,"value":3}
{"name":"Stixy_office_1","local":null,"category_code":"web","position":{"type":"Point","coordinates":[-122.542491,37.904468]},"city":"Mill Valley","founded_year":2006,"number_of_employees":0.0,"total_money_raised":0.0,"latitude":37.904468,"longitude":-122.542491,"value":3}
{"name":"Dopetracks_office_1","local":"Dopetracks_office_1","category_code":"web","position":{"type":"Point","coordinates":[-118.474261,34.210785]},